name,categories,address,lat,lng,price,likes,photos,tips,rating,ratingSignals
بهارات الأولين,Middle Eastern Restaurant,"الرياض, المملكة العربية السعودية",24.525009,46.68766,moderate,8,10,6,7.8,9
‏سيارة الأيسكريم,"Food Truck, Ice Cream Shop","الرياض, المملكة العربية السعودية",24.5281715462542,46.6925664243106,cheap,0,1,0,7.5360181223257,
Pizza Hut (بيتزا هت),Pizza Place,"حي الشفاء (طريق ديراب), الرياض, المملكة العربية السعودية",24.5307584549524,46.6871275788889,cheap,4,4,0,7.5360181223257,
Croissant Cafe || كروسان كافيه,Café,المملكة العربية السعودية,24.5303413367021,46.6885002065521,cheap,0,3,0,7.5360181223257,
بريڤي لاونج,Café,"الرياض, المملكة العربية السعودية",24.528991,46.729956,cheap,2,12,1,7.5360181223257,
فوال الطائف,Bakery,"الرياض 14725, المملكة العربية السعودية",24.531176,46.686137,cheap,0,0,0,7.5360181223257,
Starbucks,Coffee Shop,"الرياض, المملكة العربية السعودية",24.5355892899977,46.688636999689,cheap,4,12,0,8,4
ماكدونالدز,American Restaurant,"الرياض 14725, المملكة العربية السعودية",24.53288,46.69714,moderate,3,11,1,7.5360181223257,
Dunkin Donuts (دانكن دونتس),Donut Shop,"الشفا بلازا (شارع الامام مسلم), الرياض 14725, المملكة العربية السعودية",24.5353517625924,46.693243249034,cheap,17,57,1,8.2,20
المشوي العنابي,Middle Eastern Restaurant,"الرياض 14725, المملكة العربية السعودية",24.535543,46.692831,moderate,6,30,3,7.5360181223257,
4 Guys,Burger Joint,"الرياض 14725, المملكة العربية السعودية",24.53075,46.695118,cheap,1,13,0,7.5360181223257,
وقت العصير,Snack Place,"الرياض 14725, المملكة العربية السعودية",24.535141,46.693363,cheap,0,3,0,7.5360181223257,
The Sandwich Co. (ذا ساندوتش كومبني),Burger Joint,"الرياض -حي الشفاء, الرياض 14725, المملكة العربية السعودية",24.5353551463074,46.6930463535249,cheap,12,18,2,7.8,15
Al Ennabi Grill,Middle Eastern Restaurant,"Al Shifa Plaza, الرياض 14725, المملكة العربية السعودية",24.535516,46.692814,moderate,0,0,0,7.5360181223257,
شاورمر,"Shawarma Place, Fast Food Restaurant, Sandwich Place","الرياض 14725, المملكة العربية السعودية",24.531567,46.695152,cheap,2,3,1,6.6,4
سيارة ايسكريم 2020,Ice Cream Shop,"Alkhaleefa Almamoon street (Ash Shifa), الرياض 14725, المملكة العربية السعودية",24.532275,46.695833,cheap,4,7,0,7.5360181223257,
دومينوز بيتزا,Pizza Place,"حي بدر (شارع الامام مسلم), الرياض 14725, المملكة العربية السعودية",24.53551,46.692989,cheap,1,3,0,7.5360181223257,
برجر كنج Burger King,Burger Joint,"الشفا بلازا (شارع الامام مسلم), الرياض 14725, المملكة العربية السعودية",24.535664,46.692673,cheap,6,0,0,7.5360181223257,
أعالي الأمواج للمأكولات البحرية,Seafood Restaurant,المملكة العربية السعودية,24.534408,46.697308,expensive,1,0,0,7.5360181223257,
monkey cookies مونكي كوكيز,Dessert Shop,"حي بدر (شارع الامام مسلم), الرياض 14725, المملكة العربية السعودية",24.535341,46.692655,cheap,2,3,0,7.5360181223257,
ايسكريم سلطان,Ice Cream Shop,"الرياض 14725, المملكة العربية السعودية",24.531813,46.695463,cheap,0,5,0,7.5360181223257,
Pizza Papa Johns (بيتزا بابا جونز),Pizza Place,"الشفا بلازا (شارع الامام مسلم), الرياض 14725, المملكة العربية السعودية",24.535368,46.692836,cheap,0,2,0,7.5360181223257,
Burger King - Shifa 2,Burger Joint,"Al Shifa Plaza, Al Imam Muslim Rd, Near Abdul Samad Al Qurashi, Badr, الرياض 14725, المملكة العربية السعودية",24.53566,46.69276,cheap,0,0,0,7.5360181223257,
Pastaliano Pasta & Crepe,Italian Restaurant,"Imam Muslim St. (Alshafa Plaza), الرياض 14725, المملكة العربية السعودية",24.535446,46.692871,moderate,0,0,0,7.5360181223257,
Tsc,Restaurant,"alshifa, الرياض 14725, المملكة العربية السعودية",24.535385,46.693226,moderate,3,3,2,7.6,3
Dominos Pizza,Pizza Place,"Al Shifa Plaza, Al Imam Muslim St, Badr, الرياض 14725, المملكة العربية السعودية",24.535323,46.692719,cheap,0,0,0,7.5360181223257,
Dominos Pizza,Pizza Place,"Alshifaa Plaza (Imam Muslim), الرياض 14725, المملكة العربية السعودية",24.535662,46.69306,cheap,0,1,0,7.3,0
Burger King,American Restaurant,"طريق الامام مسلم, الرياض, المملكة العربية السعودية",24.535669,46.692665,moderate,0,1,0,7.5360181223257,
Shawerma Emperor (إمبراطور الشاورما),Shawarma Place,"حي بدر (شارع الامام مسلم), الرياض 14725, المملكة العربية السعودية",24.536078,46.692529,cheap,0,0,0,7.5360181223257,
Texas Chicken (دجاج تكساس),"Fried Chicken Joint, Fast Food Restaurant","حي بدر (شارع الامام مسلم), الرياض 14725, المملكة العربية السعودية",24.535557,46.693049,cheap,1,0,0,7.5360181223257,
SADIG Coffee Shop (صادق كافيه),Coffee Shop,"شارع الخليفة المأمون, الرياض, المملكة العربية السعودية",24.5345646048733,46.6981025518042,cheap,10,14,1,7.5,13
قلعة الجود للمشويات الطازجة,BBQ Joint,"a, Riyadh, المملكة العربية السعودية",24.5315075477179,46.7068290710449,moderate,1,2,0,7.5360181223257,
Türk Kassabi Bereket,Turkish Restaurant,المملكة العربية السعودية,24.532776,46.707245,moderate,0,0,0,7.5360181223257,
Sandes,Diner,المملكة العربية السعودية,24.5343407663201,46.7148327003232,cheap,0,0,0,7.5360181223257,
Boofiya - Bangladesh India And Pakistani Foods,Indian Restaurant,المملكة العربية السعودية,24.5330242799735,46.7229650248295,moderate,1,0,1,7.5360181223257,
لمحة القهوة,Coffee Shop,"الشفا (الأمام مسلم), الرياض, المملكة العربية السعودية",24.536793,46.6924,cheap,1,4,0,7.5360181223257,
Shifudo شيفودو,Seafood Restaurant,"Shifa district - Imam Muslim Road - After Orouba Center and before Banda, الرياض, المملكة العربية السعودية",24.5362752153983,46.6922423371014,expensive,12,44,7,6.5,20
قهوة شخصين 2GUYS,Café,"Alshifa (Imam Muslim), الرياض, المملكة العربية السعودية",24.5390141901061,46.6885741062707,cheap,5,32,2,6.2,10
شمس و قهوة,Coffee Shop,"طريق الامام مسلم, الرياض 14724, المملكة العربية السعودية",24.538355,46.69051,cheap,1,8,0,7.5360181223257,
Cafeteria (بوفية),Breakfast Spot,"حي بدر (ش - الامام مسلم), الرياض, المملكة العربية السعودية",24.538696,46.689591,cheap,2,1,0,7.5360181223257,
اسكندر افندي,Turkish Restaurant,"حي بدر (طريق ابن تيمية), الرياض, المملكة العربية السعودية",24.539718190124,46.6894483321895,moderate,0,2,0,7.5360181223257,
قهوة شبات,Café,"حي بدر (ط ابن تيمية), الرياض, المملكة العربية السعودية",24.5398866307971,46.6892549319687,cheap,1,7,1,7.5360181223257,
لقيمات حصة,Restaurant,"2153 Ibn Taymeeyah Rd, الرياض 14724, المملكة العربية السعودية",24.540343,46.690068,moderate,1,1,1,7.5360181223257,
Texas Chicken,Fast Food Restaurant,"Shifa (Imam Muslim Road), الرياض 14724, المملكة العربية السعودية",24.536518,46.69618,cheap,2,0,0,7.5360181223257,
Coffee Gram (جرام القهوة),Coffee Shop,"Al Khalifah Al Mamoon St, الرياض 14724, المملكة العربية السعودية",24.5378907694137,46.700820888822,cheap,88,532,36,8.9,107
Fun Taste,Restaurant,"الرياض 14724, المملكة العربية السعودية",24.538718,46.698941,moderate,0,3,2,7.5360181223257,
مقهى فنجال وقدوع للقهوة العربية,Café,"حي الشفا شارع الخليل بن أحمد (المعارض), الرياض, المملكة العربية السعودية",24.5401159051996,46.6988039016724,cheap,3,6,2,7.5360181223257,
مخبز وبوفية فوال  الشرق الاوسط,Breakfast Spot,"حي بدر (شارع الخليفة المأمون), المملكة العربية السعودية",24.538065,46.701056,cheap,0,4,0,7.5360181223257,
شاورما جي,Fast Food Restaurant,"الرياض 14724, المملكة العربية السعودية",24.539337,46.702095,cheap,0,0,0,7.5360181223257,
BAHRYA (بحرية),Seafood Restaurant,المملكة العربية السعودية,24.5385533072056,46.7004922531755,expensive,0,1,0,7.5360181223257,
مطعم ميرا البخاري,Afghan Restaurant,"بدر (شارع الخليفة المأمون), المملكة العربية السعودية",24.5383215691736,46.7013320871586,moderate,2,2,0,7.5360181223257,
كفي في التسعين,Coffee Shop,المملكة العربية السعودية,24.5402710503792,46.6985437038839,cheap,0,4,0,7.5360181223257,
اطلق بوفيه بالرياض,Buffet,"الرياض 14724, المملكة العربية السعودية",24.540268,46.705631,cheap,0,0,0,7.5360181223257,
antakya kasabi,Turkish Restaurant,"Sifa, المملكة العربية السعودية",24.538467,46.70763,moderate,2,1,1,7.5360181223257,
الحميس التركي,Doner Restaurant,"حي بدر (شارع الرسالة), الرياض 14724, المملكة العربية السعودية",24.538874,46.707584,cheap,1,3,1,7.5360181223257,
Karyet Al Romansiah,Turkish Restaurant,"Shifa (Al bedir), الرياض, المملكة العربية السعودية",24.537683,46.709636,moderate,0,0,0,7.5360181223257,
مطعم ركن الأوصال,Turkish Restaurant,"الشفا, الرياض, المملكة العربية السعودية",24.539325,46.712869,moderate,3,0,0,7.5360181223257,
Dominos Pizza (دومينوز بيتزا),Pizza Place,المملكة العربية السعودية,24.5360372790561,46.7125107698457,cheap,3,1,0,6.6,6
sandeyss,Turkish Restaurant,المملكة العربية السعودية,24.5394449428142,46.712680663548,moderate,3,2,1,7.5360181223257,
sandeys restorant,BBQ Joint,المملكة العربية السعودية,24.539253250001,46.7128645128269,moderate,1,1,0,7.5360181223257,
شركة العردان ( بوفية ),Indian Restaurant,"الشفا, الرياض 14724, المملكة العربية السعودية",24.53899,46.712391,moderate,0,0,0,7.5360181223257,
صانع الحلويات,Café,المملكة العربية السعودية,24.54049,46.713722,cheap,1,0,0,7.5360181223257,
الشفا للوجبات السريعة,Chaat Place,"الشفا (طريق عرفات), الرياض, المملكة العربية السعودية",24.541143,46.714524,cheap,0,0,0,7.5360181223257,
riyadh sifa kiral kunefe,Cafeteria,المملكة العربية السعودية,24.5408056926313,46.7133602441199,cheap,1,2,0,7.5360181223257,
فلافل قرمشة,Falafel Restaurant,"Al Itidal, المملكة العربية السعودية",24.5402574744212,46.7250263770906,cheap,5,1,0,6.8,9
مطعم أرزاق بلادي البخاري,Afghan Restaurant,"الرياض, المملكة العربية السعودية",24.539982,46.720659,moderate,1,0,0,7.5360181223257,
شاورما العائلة,Shawarma Place,"حي بدر (ش احمد شوقي), الرياض, المملكة العربية السعودية",24.5452895849366,46.6945781936918,cheap,37,21,7,8.3,45
dr.CAFE COFFEE (د. كيف كافيه),"Coffee Shop, Café","داخل محطة وقود (تقاطع شارع ابن تيمية مع الخليل بن أحمد), الرياض, المملكة العربية السعودية",24.5435978005006,46.6927871603036,cheap,106,130,48,8.3,141
تسالي سمي,Burger Joint,"الرياض 14724, المملكة العربية السعودية",24.544071,46.703378,cheap,1,6,0,7.5360181223257,
Dominos Pizza,Pizza Place,"7469 Al Khalifah Al Maamoun St, Next to Hyper Panda, Badr, الرياض 14724, المملكة العربية السعودية",24.541904,46.704626,cheap,0,0,0,7.2,1
Dominos Pizza (دومينوز بيتزا),Pizza Place,"الخليفة مأمون, الرياض, المملكة العربية السعودية",24.5417389545828,46.7042567988206,cheap,16,11,0,7.4,21
ركن حمص زكي,"Falafel Restaurant, Fast Food Restaurant",المملكة العربية السعودية,24.5434975446243,46.6938259810722,cheap,2,7,0,7.5360181223257,
baskin robbins (باسكن روبينز),Ice Cream Shop,"الشفاء- حي بدر, الرياض 14724, المملكة العربية السعودية",24.541886,46.704469,cheap,0,1,0,7.5360181223257,
بيت الفطيره الدمشقيه,Turkish Restaurant,"حي الشفاء, الرياض, المملكة العربية السعودية",24.5437246156802,46.7020822878562,moderate,0,1,0,7.5360181223257,
Awafi (عوافي),Middle Eastern Restaurant,"Al Khalil Ibn Ahmad, Badr, الرياض, المملكة العربية السعودية",24.54204,46.695209,moderate,6,3,3,6.6,8
عبدالعزيز للوجبات السريعة,Burger Joint,"حي بدر (شارع الخليل بن احمد), الرياض 14724, المملكة العربية السعودية",24.543474,46.69383,cheap,1,1,0,7.5360181223257,
فطائر بيتزا,Pizza Place,"حي بدر (ش الخليل بن احمد), الرياض, المملكة العربية السعودية",24.5431559053527,46.6928211635697,cheap,1,5,3,7.5360181223257,
فطائر النعمان,Bistro,"الرياض 14724, المملكة العربية السعودية",24.542815,46.694157,cheap,0,0,0,7.5360181223257,
مخابز دانة الارياف,Bakery,"Alshafa (Ibn Taimiyah Road), الرياض 14724, المملكة العربية السعودية",24.542967,46.692285,cheap,1,5,0,7.5360181223257,
مطبخ ابو فيصل,"American Restaurant, Austrian Restaurant","الرياض 14724, المملكة العربية السعودية",24.54487,46.694567,moderate,0,0,0,7.5360181223257,
فوال الحميداني,Arepa Restaurant,المملكة العربية السعودية,24.545779,46.707594,cheap,0,2,0,7.5360181223257,
مطبخ الصحفة,Middle Eastern Restaurant,"الرياض 14724, المملكة العربية السعودية",24.544227,46.705324,moderate,0,1,0,7.5360181223257,
Chief Chef,Restaurant,"الرياض 14716, المملكة العربية السعودية",24.545452,46.712665,moderate,3,5,1,7.5360181223257,
كويزنوز صب Quiznos Sub l,Deli / Bodega,"Alshifa, المملكة العربية السعودية",24.542889,46.715554,cheap,1,0,0,7.5360181223257,
مخابز أسوار المشاهير,Bakery,"مخابز اسوار المشاهير, الرياض 14724, المملكة العربية السعودية",24.546347,46.710483,cheap,5,3,0,7.5360181223257,
ستار بكس,Coffee Shop,المملكة العربية السعودية,24.5423454726001,46.7118542069134,cheap,10,16,0,7.4,13
باسكن روبنز Baskin Robbinz,Ice Cream Shop,"حي بدر (الخليفة المأمون), الرياض, المملكة العربية السعودية",24.5446741330365,46.7115008580659,cheap,6,15,1,6.6,8
فوال أذواق الطائف,Breakfast Spot,المملكة العربية السعودية,24.544502,46.714251,cheap,2,0,0,7.5360181223257,
مطاعم كنوز الطائف البخاري,Afghan Restaurant,المملكة العربية السعودية,24.541212,46.71398,moderate,0,0,0,7.5360181223257,
الكوخ العربي,Fast Food Restaurant,المملكة العربية السعودية,24.5448283683223,46.7116329948979,cheap,1,1,1,7.5360181223257,
فولنا,Arepa Restaurant,المملكة العربية السعودية,24.545583,46.712214,cheap,1,1,0,7.5360181223257,
kitchen,Halal Restaurant,المملكة العربية السعودية,24.542351,46.728667,cheap,0,2,0,7.5360181223257,
KFC (كنتاكي),Fried Chicken Joint,"7877 طريق ابن تيمية, الرياض 14724, المملكة العربية السعودية",24.5456848465023,46.6943702120893,cheap,22,29,2,5.9,45
Shawaya house /بيت الشواية,Comfort Food Restaurant,"Manfuha (شارع الستين), الرياض, المملكة العربية السعودية",24.5451155796012,46.6936372814108,cheap,1,0,0,7.5360181223257,
دانة الأرياف,Bakery,"الرياض 14724, المملكة العربية السعودية",24.543083,46.69221,cheap,0,0,0,7.5360181223257,
برجر ياكريم,Burger Joint,"الرياض 14724, المملكة العربية السعودية",24.54229,46.691697,cheap,0,0,0,7.5360181223257,
عصائر مز,Juice Bar,"حي بدر (طريق ابن تيمية), الرياض, المملكة العربية السعودية",24.5473358736477,46.6957869779674,cheap,27,18,2,8.2,32
B1 Grilled Burger برجر مشوي,Burger Joint,"ALSHIFA, الرياض, المملكة العربية السعودية",24.5466597729334,46.6951610515048,cheap,11,11,2,7.6,14
CAILCOFFEE & WAFFLES (كيل كافيه),Coffee Shop,"الرياض 14724, المملكة العربية السعودية",24.549274,46.69733,cheap,5,56,0,7.5360181223257,
مطعم اسطنبول الخضراء,Turkish Restaurant,"شارع ابن تيميه (الستين), الرياض 14724, المملكة العربية السعودية",24.54627,46.695164,moderate,4,2,1,7.5360181223257,
Al Hatab Bakery (أفران الحطب),Bakery,"Ibn Taymeeyah Rd, الرياض, المملكة العربية السعودية",24.5495812445521,46.6978189772754,cheap,29,34,4,9.1,32
كودو,Fast Food Restaurant,المملكة العربية السعودية,24.5489576529394,46.6971633656383,cheap,27,11,2,8.1,32
كنافة الأردن,Dessert Shop,"الرياض, المملكة العربية السعودية",24.5462648042297,46.6948119483763,cheap,13,15,2,7.4,16
pizza pastry istanbul,"Pizza Place, Fast Food Restaurant",المملكة العربية السعودية,24.5462830127982,46.6947120404328,cheap,12,14,2,5.9,24
وقت الفلافل  Falafel time,Falafel Restaurant,المملكة العربية السعودية,24.549184126692,46.6979586820999,cheap,3,1,0,7.5360181223257,
Broasted Al araby (العربي للبروستد),Fried Chicken Joint,"حي بدر (ط ابن تيمة), الرياض, المملكة العربية السعودية",24.55006,46.697802,cheap,0,1,0,7.5360181223257,
New Cafe (جديد القهوة),Café,"الرياض, المملكة العربية السعودية",24.5464109030963,46.6949251707458,cheap,3,22,0,7.5360181223257,
كنتاكي,Fried Chicken Joint,المملكة العربية السعودية,24.54556645658,46.6945241760072,cheap,0,0,0,7.5360181223257,
Iranian Shawarma & Grill (المشويات والشاورما الايراني),Shawarma Place,المملكة العربية السعودية,24.5507340345991,46.6983549864322,cheap,10,7,0,7.4,13
قلعة الجود للمشويات الطازجة,Steakhouse,المملكة العربية السعودية,24.5512360463958,46.6986946783576,very expensive,6,2,0,7.2,8
Falafel Time,Breakfast Spot,المملكة العربية السعودية,24.550148,46.698013,cheap,1,0,0,7.5360181223257,
عصائر عنوب,Juice Bar,"شارع الستين-حي الشفاء, الرياض, المملكة العربية السعودية",24.5512060707158,46.6989519651405,cheap,14,30,3,7.7,16
مطعم بخاري الطائف,Middle Eastern Restaurant,المملكة العربية السعودية,24.546345052721,46.7074984390309,moderate,34,7,3,7.8,44
Light Diet (لايت دايت),Restaurant,"الرياض 14716, المملكة العربية السعودية",24.5493015198487,46.7068726354508,moderate,5,96,1,7.5360181223257,
لقيمات نوره,Dessert Shop,"الرياض 14716, المملكة العربية السعودية",24.55027,46.70572,cheap,6,6,1,7.3,8
بوفية صاص,Sandwich Place,"الرياض 14716, المملكة العربية السعودية",24.549849,46.706225,cheap,0,0,0,7.5360181223257,
مطعم شاورما الشيف,Middle Eastern Restaurant,"3837 Imam Malek Road (Umm Ammarah), الرياض 14724, المملكة العربية السعودية",24.548077,46.707947,moderate,4,13,3,7.5360181223257,
pizza slice,Pizza Place,المملكة العربية السعودية,24.550773515504,46.7018369379632,cheap,0,2,0,7.5360181223257,
مطعم ديرتي لتكبير الكروش و تنفيخ الفخوذ,American Restaurant,المملكة العربية السعودية,24.5486621856689,46.7070503234863,moderate,0,0,0,7.5360181223257,
مطاعم الشراع,Middle Eastern Restaurant,"شارع ابن تيمية, الرياض, المملكة العربية السعودية",24.5512167871446,46.7035402572167,moderate,2,3,0,7.5360181223257,
مطعم حضرموت للمطبق والمعصوب,Afghan Restaurant,المملكة العربية السعودية,24.5513,46.70336,moderate,0,0,0,7.5360181223257,
بوفية المملكة,Breakfast Spot,المملكة العربية السعودية,24.5494392211246,46.7043707053475,cheap,0,1,0,7.5360181223257,
البيتزا الساخنة,Arepa Restaurant,المملكة العربية السعودية,24.550594,46.7111,cheap,2,3,1,7.5360181223257,
تاج القهوة Taj Coffee,Coffee Shop,"حي بدر (طريق عرفات), الرياض, المملكة العربية السعودية",24.543169,46.71669,cheap,3,2,0,7.5360181223257,
شاورما الدوحه,Dutch Restaurant,"الرياض 14716, المملكة العربية السعودية",24.550787,46.711283,cheap,0,1,0,7.5360181223257,
VIM Esspresso Bar,Coffee Shop,"الرياض 14716, المملكة العربية السعودية",24.550921,46.711627,cheap,2,3,0,7.5360181223257,
فوال الطائف,Breakfast Spot,"طريق عرفات, الشفا, المملكة العربية السعودية",24.544259888535,46.7174853744685,cheap,24,36,1,7.3,34
مطعم صاج الضيعة,Restaurant,"الرياض, المملكة العربية السعودية",24.546128,46.719085,moderate,2,0,0,7.5360181223257,
فطائر روائع السنبلة,Bakery,"حي الشفا, الرياض, المملكة العربية السعودية",24.5465507746176,46.7187099449486,cheap,5,0,1,7.5360181223257,
فلافل فيحاء دمشق,Falafel Restaurant,"حي بدر (طريق عرفات), الرياض, المملكة العربية السعودية",24.546344,46.719164,cheap,0,0,0,7.5360181223257,
The Lab By Gastronomy,Food Truck,"Othman bin Affan Road (King Abdullah Road), الرياض, المملكة العربية السعودية",24.5476403333034,46.7181600444148,cheap,2,3,0,7.5360181223257,
Fun Juice,Juice Bar,"الرياض 14716, المملكة العربية السعودية",24.545051,46.717703,cheap,0,1,0,7.5360181223257,
شاورما الزاوية,Arepa Restaurant,المملكة العربية السعودية,24.5447411436762,46.7210486414508,cheap,0,0,0,7.5360181223257,
"مطعم كنتاكي , KFC",Fast Food Restaurant,"الرياض 14716, المملكة العربية السعودية",24.549766,46.7213,cheap,5,10,0,7.5360181223257,
Snack (تسالي),Burger Joint,المملكة العربية السعودية,24.5470267457478,46.7236589058481,cheap,1,0,0,7.5360181223257,
فوال لواء الشمال,Afghan Restaurant,المملكة العربية السعودية,24.54984,46.722428,moderate,1,2,1,7.5360181223257,
Pizza Hut,Pizza Place,"Arafat Rd, Telal Al Shifaa, الرياض, المملكة العربية السعودية",24.550003,46.722346,cheap,0,0,0,7.5360181223257,
ورق التوت,Middle Eastern Restaurant,"الرياض, المملكة العربية السعودية",24.5523521999236,46.6996507397098,moderate,65,20,11,8.2,77
فرن الضيعة,Bakery,"الرياض 14716, المملكة العربية السعودية",24.555703,46.702617,cheap,17,9,5,8.6,18
مطعم جنيه,Fried Chicken Joint,المملكة العربية السعودية,24.5536692506889,46.7009923773336,cheap,6,14,0,7.5360181223257,
مضغوط حاشي باشا,Middle Eastern Restaurant,"Ibn Taymyah St., الرياض 14724, المملكة العربية السعودية",24.552443,46.699943,moderate,4,2,1,7.5360181223257,
بيتزا وفطائر على الطائر,Pizza Place,المملكة العربية السعودية,24.5525349856381,46.7000912138288,cheap,2,3,0,7.5360181223257,
الركن الشعبي للمطبق والمعصوب,Middle Eastern Restaurant,"حي بدر (ط ابن تيمية), الرياض, المملكة العربية السعودية",24.554389,46.701557,moderate,0,1,0,7.5360181223257,
بوظة شامية,Dessert Shop,المملكة العربية السعودية,24.5566005371841,46.7034411705755,cheap,0,0,1,7.5360181223257,
بيت المانجة,Juice Bar,"حي بدر (ط ابن تيمية), الرياض, المملكة العربية السعودية",24.5545347527617,46.7015255340615,cheap,6,4,0,7.5360181223257,
اطيب كبده,Breakfast Spot,"الرياض 14716, المملكة العربية السعودية",24.55412,46.701401,cheap,0,0,0,7.5360181223257,
بيتزا شيخ البلد,Pizza Place,"شارع الستين الشفاء, الرياض, المملكة العربية السعودية",24.5555174849309,46.702478624839,cheap,0,1,0,7.5360181223257,
مجمع دستاران الطبي,Swiss Restaurant,المملكة العربية السعودية,24.551931,46.712112,expensive,6,5,1,7.1,8
4اسياخ,Kebab Restaurant,"الرياض 14716, المملكة العربية السعودية",24.554067,46.725276,cheap,0,2,0,7.5360181223257,
البيك,"Fried Chicken Joint, Fast Food Restaurant","الرياض 14718, المملكة العربية السعودية",24.5561920655266,46.7273450198025,cheap,43,73,16,9,56
قهوه المغرب,Coffee Shop,المملكة العربية السعودية,24.5566528261586,46.7267649872378,cheap,5,6,1,7.3,8
McDonalds (ماكدونالدز),"Fast Food Restaurant, American Restaurant","حي بدر (طريق ابن تيمية), الرياض, المملكة العربية السعودية",24.5580220872139,46.7049995549138,cheap,44,53,4,6.7,74
شواية الخليج,Middle Eastern Restaurant,"Alshifa (Ibn Taimeah St.), الرياض, المملكة العربية السعودية",24.5574635908151,46.7037587409431,moderate,13,17,4,8.5,14
Saldwich,Salad Place,"Ibn Taymeeyah Rd, Ash Shifa, الرياض, المملكة العربية السعودية",24.557228,46.703714,cheap,2,12,0,7.5360181223257,
Dunkin Donuts (دانكن دونتس),Donut Shop,"حي بدر (شارع ابن تيمية), الرياض, المملكة العربية السعودية",24.5586141120463,46.7057626805525,cheap,548,845,29,8.8,665
أمبراطور الشورما,Middle Eastern Restaurant,"حي الشفا, الرياض, المملكة العربية السعودية",24.559594221223,46.7059367457825,moderate,22,11,9,7.7,28
برجر كنج Burger King,Burger Joint,المملكة العربية السعودية,24.5594008481178,46.7056305592097,cheap,10,9,2,7.3,13
الليوان,Fast Food Restaurant,المملكة العربية السعودية,24.5592600610369,46.7052955387962,cheap,5,11,1,7.5360181223257,
AANI & DANI (آني وداني),Dessert Shop,"الرياض, المملكة العربية السعودية",24.5592841370795,46.7053071677708,cheap,14,20,1,8.3,15
Ice Cream Rolls (ايسكريم رولز),Ice Cream Shop,"شارع ابن تيمية, الرياض 14716, المملكة العربية السعودية",24.558697,46.705064,cheap,4,10,2,7.5360181223257,
Kudu (كودو),Fast Food Restaurant,"تقاطع المدارس مع الستين, الرياض, المملكة العربية السعودية",24.5614176917277,46.7074755709477,cheap,7,16,0,7.5360181223257,
سنابل السلام,Dessert Shop,المملكة العربية السعودية,24.5590210152905,46.7051304525994,cheap,1,2,0,7.5360181223257,
فوال الطائف,Breakfast Spot,"الشفا (شارع الترمذي), الرياض, المملكة العربية السعودية",24.55853,46.711395,cheap,1,2,0,7.5360181223257,
V12 Coffee,Coffee Shop,"الرياض 14716, المملكة العربية السعودية",24.557913,46.711351,cheap,0,2,0,7.5360181223257,
بلاك هارت,Coffee Shop,"الرياض 14716, المملكة العربية السعودية",24.557254,46.712966,cheap,1,3,1,7.5360181223257,
Akher Rashfa (آخر رشفة),Juice Bar,"الرياض 14716, المملكة العربية السعودية",24.55784,46.712016,cheap,0,1,0,7.5360181223257,
H-19 othaim mkt. alshifa,Burger Joint,"Othaim Mkt (Ben Tanmiya), Riyadh, المملكة العربية السعودية",24.5616646178511,46.7076143259883,cheap,5,1,2,5.6,10
لا ميزون,Bakery,"الرياض 14716, المملكة العربية السعودية",24.55994,46.70631,cheap,0,0,0,7.5360181223257,
Shawahe (شواهي),Tea Room,"حي الشفا (طريق ابن تيمية), الرياض, المملكة العربية السعودية",24.560181,46.706346,moderate,0,1,0,7.5360181223257,
مطعم أبو سامي للوجبات السريعة,American Restaurant,المملكة العربية السعودية,24.5584535796046,46.7115102963995,moderate,4,3,0,7.5360181223257,
الكريب الذهبي,Coffee Shop,"الرياض 14716, المملكة العربية السعودية",24.560308,46.706362,cheap,0,2,0,7.5360181223257,
فوال الافغاني,Breakfast Spot,"الرياض 14716, المملكة العربية السعودية",24.558365,46.711171,cheap,1,2,1,7.5360181223257,
مطعم القصر التركي,Turkish Restaurant,المملكة العربية السعودية,24.560411097524,46.7069376321153,moderate,5,10,4,5.4,11
Burger King - Shifa,Burger Joint,"Nahr Al Barduni, Next to Sport Ghornata, Ash Shifa, الرياض 14716, المملكة العربية السعودية",24.559312,46.705847,cheap,0,0,0,7.5360181223257,
turkish palace,Turkish Restaurant,المملكة العربية السعودية,24.560237427854,46.7068338200235,moderate,1,4,2,7.5360181223257,
مخبز الديوان للتميس,Bakery,"Ar Riyadh (Al Muthana Ibn Haritha), المملكة العربية السعودية",24.5587727711548,46.7072396321518,cheap,0,0,0,7.5360181223257,
فن الكنافة,Dessert Shop,"الشفا, الرياض, المملكة العربية السعودية",24.558392,46.704936,cheap,0,3,0,7.5360181223257,
مطاعم سحابة الحجاز,Middle Eastern Restaurant,"Ibn Taymeeyah Road, الرياض 14716, المملكة العربية السعودية",24.560678,46.7071,moderate,0,0,0,7.5360181223257,
Fuddruckers,American Restaurant,"العليا, الرياض, المملكة العربية السعودية",24.5622,46.7104,moderate,2,1,0,7.6,2
Subway (صب واي),Sandwich Place,"ط ابن تيمية, الرياض, المملكة العربية السعودية",24.5588403251544,46.7065790094378,cheap,3,5,0,7.5360181223257,
بلح وعسل,Pie Shop,"Ash Shifa (Ibn Taimeyah), المملكة العربية السعودية",24.555296,46.702078,cheap,10,1,1,6.5,14
مطاعم نكهات الشور,Moroccan Restaurant,"الرياض, المملكة العربية السعودية",24.5555373746318,46.7021813718077,moderate,3,3,0,7.5360181223257,
ج س ت | ⁰ ⁹ ⁹ ¹ Just,Coffee Shop,"الرياض 14716, المملكة العربية السعودية",24.564419,46.709931,cheap,11,57,1,8.6,11
باسكن وربنز Baskin Robbins,Ice Cream Shop,المملكة العربية السعودية,24.562149428857,46.7077445425311,cheap,5,16,1,7.6,6
break fast,Diner,المملكة العربية السعودية,24.5626564025879,46.7100067138672,cheap,0,0,0,7.5360181223257,
حلويات ناصر العبيد,Dessert Shop,"الرياض, المملكة العربية السعودية",24.562217,46.708076,cheap,0,0,0,7.5360181223257,
Copper Cafe (قهوة نحاسية),Coffee Shop,"الرياض 14716, المملكة العربية السعودية",24.56469,46.710094,cheap,0,0,0,7.5360181223257,
Jareer Patisserie (حلويات جرير),Pastry Shop,"الرياض, المملكة العربية السعودية",24.5811147712878,46.6300464607002,cheap,5,5,0,7.5360181223257,
Al Hatab Bakery (أفران الحطب),Bakery,"شارع حمزة بن عبدالمطلب, الرياض, المملكة العربية السعودية",24.582581972598,46.6289093172393,cheap,69,32,6,8.8,77
FitHouse,Comfort Food Restaurant,"الرياض 12982, المملكة العربية السعودية",24.581755,46.632152,cheap,2,18,1,7.5360181223257,
مظغوط حاشيكم,Restaurant,"الرياض 12982, المملكة العربية السعودية",24.581494,46.631611,moderate,0,0,0,7.5360181223257,
AlDirah Restaurants & Kitchens (مطاعم ومطابخ الديرة),Middle Eastern Restaurant,"AlBadiah District (AlNakheel), الرياض, المملكة العربية السعودية",24.5815169864024,46.6320507640377,moderate,2,0,0,7.5360181223257,
مشويات وردة مساء,BBQ Joint,المملكة العربية السعودية,24.5819623168769,46.6316078689974,moderate,0,1,0,7.5360181223257,
القرية النجدية فرع البديعه,Afghan Restaurant,المملكة العربية السعودية,24.5823211669922,46.6312294006348,moderate,0,2,0,7.5360181223257,
مخابز وحلويات هرفي,Bakery,المملكة العربية السعودية,24.5811410692788,46.6311744010643,cheap,4,1,0,7.5360181223257,
Kermalak (كرمالك),Middle Eastern Restaurant,"شارع الشيخ عبدالعزيز بن محمد بن علي (شارع حمزة بن عبدالمطلب), الرياض, المملكة العربية السعودية",24.5829477974112,46.6341721546375,moderate,120,27,46,6.6,187
1K - Speciality Coffee,"Coffee Shop, Café","الرياض 12982, المملكة العربية السعودية",24.585412,46.626912,cheap,33,228,9,8,43
Dominos Pizza (دومينوز بيتزا),Pizza Place,"6597-6659 Hamzah Ibn Abdul Muttalib St, Dhahrat Al Badiaah (طريق حمزة بن عبدالمطلب), الرياض 12982, المملكة العربية السعودية",24.585927,46.626573,cheap,20,9,3,8.6,22
مطعم شواية كرم البخاري,Arepa Restaurant,المملكة العربية السعودية,24.587858,46.625322,cheap,3,6,1,7.5360181223257,
Grill Town مشوي المدينة,Burger Joint,"6659 حمزة بن عبدالمطلب, Dhahrat Al Badiah, الرياض 2209, المملكة العربية السعودية",24.5864074137624,46.6262662410736,cheap,0,1,0,7.5360181223257,
مطاعم النافورة,Middle Eastern Restaurant,المملكة العربية السعودية,24.588329035707,46.624933887802,moderate,21,7,2,5.5,39
فروج الديوان,Turkish Restaurant,المملكة العربية السعودية,24.5842237405174,46.6364233857265,moderate,1,4,1,7.5360181223257,
1K,"Coffee Shop, Café","الرياض 12991, المملكة العربية السعودية",24.58514,46.626866,cheap,3,27,3,7.5360181223257,
واحد كيلو للقهوة المختصة,Coffee Shop,"Hamzah Ibn Abdul Muttalib St, الرياض 12982, المملكة العربية السعودية",24.585885,46.626453,cheap,0,1,0,7.5360181223257,
نجم البرجر,Burger Joint,المملكة العربية السعودية,24.5836590784878,46.6280742728581,cheap,0,5,0,7.5360181223257,
فوال تﻻل الطائف,Afghan Restaurant,المملكة العربية السعودية,24.582820892334,46.6307640075684,moderate,1,4,0,7.5360181223257,
One Size,Coffee Shop,"الرياض 12982, المملكة العربية السعودية",24.5869451056532,46.6395622386302,cheap,60,348,16,8.7,71
Tannourain Restaurant (مطعم التنورين),Middle Eastern Restaurant,المملكة العربية السعودية,24.5867756503645,46.640574136864,moderate,17,5,3,7.7,22
Mysterious Flavor,Food Truck,"الرياض 12994, المملكة العربية السعودية",24.5877115469772,46.637370523471,cheap,0,14,0,7.5360181223257,
بيتزانا,Pizza Place,المملكة العربية السعودية,24.585797,46.638853,cheap,3,1,0,7.5360181223257,
Ona Siza Cafe مقهى حجم واحد,Café,"ظهرة البديعة (الشيخ عمر بن عبداللطيف بن عبدالرحمن), الرياض 12982, المملكة العربية السعودية",24.5869660874434,46.6395437276643,cheap,25,158,12,8.4,30
قصر الفلافل,Falafel Restaurant,المملكة العربية السعودية,24.5865769611453,46.6402261819227,cheap,1,7,0,7.5360181223257,
مقهى الفضاء Space Cafe,Café,"ظهرة البديعة (شارع الشيخ عمر بن عبداللطيف بن عبدالرحمن), الرياض 12982, المملكة العربية السعودية",24.586887,46.639582,cheap,1,8,2,7.5360181223257,
زاويه كافيه,Coffee Shop,"حي البديعة (شارع النخيل), الرياض, المملكة العربية السعودية",24.5867454126915,46.6397254800271,cheap,7,35,1,6.4,10
BONNE SANTE CAFA,Dutch Restaurant,"الرياض 12982, المملكة العربية السعودية",24.588242,46.636933,cheap,2,12,0,7.5360181223257,
Angle Cafe,Coffee Shop,"الرياض, المملكة العربية السعودية",24.5866901143791,46.6396936787577,cheap,4,17,1,7.5360181223257,
Angle Cafe,Café,"الرياض, المملكة العربية السعودية",24.5867376296163,46.6396941287611,cheap,6,179,3,6.8,9
زاوية موطن زمان,Coffee Shop,"شارع الشيخ عمر بن عبداللطيف بن عبدالرحمن, الرياض 12982, المملكة العربية السعودية",24.586584,46.639802,cheap,0,3,0,7.5360181223257,
حلويات بلح وعسل,Dessert Shop,المملكة العربية السعودية,24.5876437010382,46.6386899493066,cheap,2,1,0,7.5360181223257,
مطعم زاوية  السعيد,Middle Eastern Restaurant,المملكة العربية السعودية,24.585975,46.639277,moderate,2,0,0,7.5360181223257,
FAROUJ ALDIWAN,Restaurant,المملكة العربية السعودية,24.5871034876658,46.6411631814786,moderate,12,8,1,7.1,15
فلافل الشامية,Falafel Restaurant,"الرياض 12981, المملكة العربية السعودية",24.58765,46.641734,cheap,0,0,0,7.5360181223257,
Right Meal,Food Truck,"الرياض 12984, المملكة العربية السعودية",24.5879338582768,46.6422242975649,cheap,0,0,0,7.5360181223257,
Kammory (كاموري),Burger Joint,"البديعة (النخيل), الرياض, المملكة العربية السعودية",24.5872927357135,46.6412959178456,cheap,7,9,6,6.1,11
سحاب للمشويات Sahaab Restaurant,Middle Eastern Restaurant,"Dharat Al-Badi'ah (Ash Shaikh Abul Aziz Ibn Mudammad St), الرياض 12981, المملكة العربية السعودية",24.587321,46.640991,moderate,1,2,0,7.5360181223257,
SUBWAY (صب واي),Sandwich Place,المملكة العربية السعودية,24.5894769906742,46.6257940584155,cheap,8,1,0,7.9,9
الرمان عصائر وبرستد,"Juice Bar, Fried Chicken Joint","شارع المدينة المنورة مخرج ٢٨ (شارع المدينة المنورة مع تقاطع حمزة), الرياض, المملكة العربية السعودية",24.5901238431264,46.6267032648112,cheap,145,212,43,8.4,178
Anoosh (أنوش Anoosh),Dessert Shop,"طريق المدينة المنورة, الرياض, المملكة العربية السعودية",24.5913644965238,46.6289811971718,cheap,336,90,32,9.3,368
Maestro Pizza (مايسترو بيتزا),Pizza Place,"طريق المدينه المنوره, الرياض, المملكة العربية السعودية",24.5916096278947,46.6298080594093,cheap,32,4,10,8.2,37
Baskin Robbins (باسكن روبنز),Ice Cream Shop,"طريق المدينة, المملكة العربية السعودية",24.5922697127123,46.6305232455147,cheap,49,41,0,8.6,57
بيت الفطيرة الدمشقية,Arepa Restaurant,"شارع المدينة (مقابل سنتر بوينت), الرياض, المملكة العربية السعودية",24.5931061977479,46.6317921188639,cheap,19,5,12,7.3,26
مخابز وحلويات شامي,Bakery,المملكة العربية السعودية,24.5891552925319,46.6292662446364,cheap,1,1,0,7.5360181223257,
واحة الرمان للعصائر والبروستد,Fast Food Restaurant,"ظهرة البديعة - شارع المدينة المنورة (المدينة المنورة), الرياض, المملكة العربية السعودية",24.5904853990045,46.6262984275818,cheap,0,0,0,7.5360181223257,
مطاعم جفنة,Restaurant,المملكة العربية السعودية,24.589286093023,46.6294499898562,moderate,0,0,0,7.5360181223257,
AL RUMAN (الرمان),Juice Bar,"الرياض 12974, المملكة العربية السعودية",24.590296,46.62659,cheap,2,1,0,7.5360181223257,
السرير الي اكل فيه,Afghan Restaurant,المملكة العربية السعودية,24.590693,46.638974,moderate,1,22,0,7.5360181223257,
قهوة البيت الي مافيه مثلها,Café,المملكة العربية السعودية,24.590763,46.638962,cheap,1,0,0,7.5360181223257,
قهوة حصة الحلوه,Café,المملكة العربية السعودية,24.590747,46.638999,cheap,2,6,0,7.5360181223257,
Alrahayah Bakery (مخابز الرحاية),Bakery,المملكة العربية السعودية,24.590854,46.647053,cheap,2,1,0,7.5360181223257,
Indian Palace (قصر الهند),Indian Restaurant,"Abyadh Albariqi, الرياض, المملكة العربية السعودية",24.589818997166,46.6520726256743,moderate,162,107,48,7.6,231
Rose Sweets (حلويات روز),Cupcake Shop,"شارع عائشة بنت ابي بكر, الرياض, المملكة العربية السعودية",24.5924355497807,46.6495596159784,moderate,94,33,23,8.7,111
Kudu (كودو),Breakfast Spot,"الرياض, المملكة العربية السعودية",24.5905103271901,46.6512797012117,cheap,24,16,4,8.5,29
Burger King (برجركنج),Fast Food Restaurant,"شارع عائشه بنت الي بكر, Riyadh, المملكة العربية السعودية",24.5903870491102,46.6515877025763,cheap,12,12,2,6.4,20
بيت الوناسه,Dessert Shop,المملكة العربية السعودية,24.591483,46.647953,cheap,25,10,2,8.1,29
مدار الفطيره,"Cheese Shop, Bakery, Fast Food Restaurant","الرياض, المملكة العربية السعودية",24.5935605688403,46.6485066304229,cheap,0,1,0,7.5360181223257,
Burger King,Fast Food Restaurant,"Industrial City, الرياض, المملكة العربية السعودية",24.5903135820455,46.6515608933302,cheap,2,14,3,6.4,5
Burger King - Badia,"Burger Joint, Restaurant","Aisha Bint Abi Bakr St, Exit 25, Next to Theeb Rent Car, Dharath Al Badia, الرياض 12874, المملكة العربية السعودية",24.590299,46.651724,cheap,0,0,0,7.5360181223257,
حمص ابو زكي,Breakfast Spot,"شارع عائشة بنت ابي بكر, الرياض, المملكة العربية السعودية",24.5930497193346,46.6491994792321,cheap,1,0,0,7.5360181223257,
La Cucina Che Me Vicina,Latin American Restaurant,المملكة العربية السعودية,24.592419,46.653778,moderate,0,0,0,7.5360181223257,
Iftaars Gathering (مائدة الإفطار),Food Court,المملكة العربية السعودية,24.592416,46.653717,cheap,2,7,0,7.5360181223257,
kudu (كودو),"Sandwich Place, Fast Food Restaurant, Breakfast Spot","الرياض, المملكة العربية السعودية",24.5939176355073,46.6330768754462,cheap,73,24,10,7.4,104
Sanabl Al Salam (سنابل السلام),Dessert Shop,"طريق المدينة المنورة, الرياض, المملكة العربية السعودية",24.5964011863077,46.6347883196013,cheap,5,3,0,7.5360181223257,
سيارة ايسكريم,Café,المملكة العربية السعودية,24.59478,46.63213,cheap,1,0,0,7.5360181223257,
كون زون,Food Stand,"شارع المدينة, الرياض, المملكة العربية السعودية",24.594288,46.633754,cheap,5,9,0,7.5360181223257,
مطعم المحار الذهبي Golden Oyster,Seafood Restaurant,"ظهرة البديعة (شارع المدينة), الرياض, المملكة العربية السعودية",24.593966,46.633397,expensive,16,12,5,6.4,25
كوب الذرة,Cafeteria,"الرياض (طريق المدينة المنورة), البديعة, المملكة العربية السعودية",24.596,46.636,cheap,1,1,0,7.5360181223257,
ليتل سيزرز,Fast Food Restaurant,"طريق المدينة, الرياض, المملكة العربية السعودية",24.595225,46.635,cheap,1,2,1,7.5360181223257,
حلويات الشهد,Dessert Shop,المملكة العربية السعودية,24.594085,46.633747,cheap,0,0,0,7.5360181223257,
الشراع AlSheraa,Burger Joint,المملكة العربية السعودية,24.5947708225058,46.6340579759689,cheap,0,2,0,7.5360181223257,
مطعم بكين الصيني,"Asian Restaurant, Chinese Restaurant",المملكة العربية السعودية,24.5954122814764,46.6359496442654,moderate,15,37,8,6.6,22
حديقة أمي هيا,Dutch Restaurant,"الرياض 12972, المملكة العربية السعودية",24.595576,46.6311,cheap,2,5,0,7.5360181223257,
أسماك النافورة,Fish & Chips Shop,المملكة العربية السعودية,24.5883477455849,46.6251156676352,cheap,1,2,0,7.5360181223257,
Baskin-Robbins,Ice Cream Shop,"الرياض 12974, المملكة العربية السعودية",24.59278,46.630542,cheap,1,2,0,7.7,1
فطيرة الفلافل,Breakfast Spot,"طريق المدينة المنورة, الرياض 12972, المملكة العربية السعودية",24.596118,46.636132,cheap,1,1,0,7.5360181223257,
شواية الخليج,Middle Eastern Restaurant,"Madina Munwarah Rd, المملكة العربية السعودية",24.5961720171711,46.6364714767954,moderate,99,23,16,9,113
بوظة التوت الشامي,Snack Place,"الرياض 12981, المملكة العربية السعودية",24.596219,46.636826,cheap,0,3,0,7.5360181223257,
البوظة الشامية,Ice Cream Shop,"طريق المدينة, المملكة العربية السعودية",24.5965943876026,46.6375590107397,cheap,0,0,0,7.5360181223257,
بيتزا وفطائر فهد ( فطائر تركيا ),Pizza Place,"الرياض 12981, المملكة العربية السعودية",24.597559,46.639317,cheap,3,1,1,7.5360181223257,
ايسكريم لولو للبوظه الشاميه,Ice Cream Shop,"حي البديعة (طريق المدينة المنورة), الرياض, المملكة العربية السعودية",24.5966308017203,46.6375260254162,cheap,2,2,0,7.5360181223257,
Tom Tom (توم توم),"Fast Food Restaurant, Burger Joint","شارع المدينة المنورة, الرياض, المملكة العربية السعودية",24.5965457587979,46.637183468833,cheap,16,9,5,6.7,23
Shami,Bakery,"الرياض 12972, المملكة العربية السعودية",24.596914,46.637475,cheap,0,0,0,7.5360181223257,
Hungry Bunny (الأرنب الجائع),Fast Food Restaurant,"البديعة (طريق المدينة المنورة), الرياض, المملكة العربية السعودية",24.5971912576477,46.6388124691904,cheap,1,3,2,7.5360181223257,
GelaShake,Juice Bar,المملكة العربية السعودية,24.597283,46.638645,cheap,0,0,0,7.5360181223257,
Angle Cafe 2,Café,"ظهرة البديعه (طريق المدينه), الرياض, المملكة العربية السعودية",24.5966944924257,46.6370972181964,cheap,2,9,1,7.5360181223257,
essence coffee (ايسنس كوفي),Café,"المدينة المنورة - البديعة مول 2, الرياض, المملكة العربية السعودية",24.5976,46.6399,cheap,1,5,0,7.5360181223257,
Dajen l داجن,Fried Chicken Joint,"3381 المدينة المنورة (Madinah Munawara Road), الرياض 7814, المملكة العربية السعودية",24.5967357754821,46.6380537932081,cheap,22,12,30,8.1,29
Zedni,Fast Food Restaurant,المملكة العربية السعودية,24.5962,46.63749,cheap,0,0,0,7.5360181223257,
شجرة البندق,Dessert Shop,المملكة العربية السعودية,24.597834,46.639041,cheap,1,0,0,7.5360181223257,
Usta Shawarma (اسطا الشاورما),Shawarma Place,"4438 Al Madinah Almunawarah Rd 12972-7062, الرياض 12972, المملكة العربية السعودية",24.5978410460575,46.6388511657715,cheap,2,5,5,7.5360181223257,
ركن هاشم,Falafel Restaurant,"Al-madina Al-munawar Road, الرياض 12972, المملكة العربية السعودية",24.597644,46.638607,cheap,2,0,0,7.5360181223257,
ارض الحمام,African Restaurant,المملكة العربية السعودية,24.596567,46.637378,moderate,9,2,0,6.9,12
Dajen,Restaurant,"Badiah, الرياض 11566, المملكة العربية السعودية",24.5965143299984,46.6380786895752,moderate,2,0,4,7.5360181223257,
McDonalds (ماكدونالدز),Fast Food Restaurant,"طريق المدنية المنورة, الرياض, المملكة العربية السعودية",24.5985778178672,46.6400915729528,cheap,115,66,15,7.9,159
P.Vera Cake (بي فيرا كيك),Dessert Shop,"مخرج ٢٥ - طريق عائشة بنت أبي بكر (طريق المدينة المنورة), الرياض, المملكة العربية السعودية",24.5969075035991,46.6466377750997,cheap,74,126,19,9,86
Danat Al Aryaf (دانة الأرياف),Bakery,"Aisha Bent Abi Baker Rd., الرياض, المملكة العربية السعودية",24.5959887690547,46.6473206853943,cheap,52,12,6,8.4,62
Shawarmer (شاورمر),Shawarma Place,"Albadeea (طريق عائشة بنت أبي بكر الصديق (الأبراج)), الرياض, المملكة العربية السعودية",24.5955036190552,46.6476172044813,cheap,91,38,21,7,133
Furn Al Dayaa (فرن الضيعة),Middle Eastern Restaurant,المملكة العربية السعودية,24.5957040024799,46.6474874846278,moderate,27,28,6,8,33
Al Rifadah Restaurant (مطعم الرفادة),Restaurant,"Ayesha Bint Abu Bakr St., الرياض, المملكة العربية السعودية",24.5949848976226,46.6477220006699,moderate,33,7,6,6.8,51
Waleed Restaurant (مطاعم زاوية وليد),Middle Eastern Restaurant,"2505 عائشة بنت ابي بكر, الرياض 7435, المملكة العربية السعودية",24.5943975448608,46.6485124826431,moderate,5,2,0,6.2,9
Wed Café (كافيه ود),Café,"الرياض 12981, المملكة العربية السعودية",24.596703,46.646292,cheap,4,4,1,7.5360181223257,
Dar Alrifadah Restaurant (مطاعم دار الرفادة),Middle Eastern Restaurant,المملكة العربية السعودية,24.594885,46.647724,moderate,2,0,1,7.5360181223257,
مطاعم هاشم,"Breakfast Spot, Falafel Restaurant","الرياض, المملكة العربية السعودية",24.5986076,46.6410152,cheap,5,3,3,6,9
GAD (جاد),"Middle Eastern Restaurant, Falafel Restaurant",المملكة العربية السعودية,24.597845,46.645389,moderate,13,9,6,7.5,17
McDonalds (ماكدونالدز),Fast Food Restaurant,"الرياض, المملكة العربية السعودية",24.59856,46.640144,cheap,2,6,0,7.5360181223257,
Burger Sheikh شيخ البرغر,Burger Joint,"Riyadh 12981 (Aishah Bin Abi Bakr), الرياض 12981, المملكة العربية السعودية",24.5956313610077,46.6475147008896,cheap,4,2,0,7.5360181223257,
كسِره,Food Truck,"Hitten (Turki Al-awwal), الرياض 13531, المملكة العربية السعودية",24.593801762951,46.6444157192114,cheap,3,4,2,7.5360181223257,
كنافه الكنفالي,Dessert Shop,"شارع عائشه بنت ابي بكر, الرياض, المملكة العربية السعودية",24.5952788836045,46.6478467833547,cheap,4,11,3,7.5360181223257,
يامال الشام,Asian Restaurant,"المملكة العربية السعودية (شارع العليا العام), الرياض, المملكة العربية السعودية",24.5987526253059,46.6404806544686,moderate,3,4,1,7.5360181223257,
حلويات درة الصالحية,Dessert Shop,"حي ظهرة البديعة (شارع عائشة بنت أبي بكر ( الأبراج )), الرياض, المملكة العربية السعودية",24.5960222350126,46.6472057974123,cheap,0,0,0,7.5360181223257,
وردة الجزيرة اللبناني,Middle Eastern Restaurant,المملكة العربية السعودية,24.5983371619711,46.6400046976151,moderate,1,1,2,7.5360181223257,
Sultan Coffee | سلطان القهوة (سلطان القهوة),Coffee Shop,"Aisha bint Abu Bakr St. شارع عائشة بنت أبي بكر, الرياض, المملكة العربية السعودية",24.5978697569765,46.6459769784733,cheap,15,9,2,7.1,21
Feresca Pasta (باستا فيريسكا),Italian Restaurant,"Aisha Bent Abi Baker Rd., الرياض, المملكة العربية السعودية",24.5982509903051,46.6457821934584,moderate,60,102,28,8.2,83
Baskin Robbins (باسكن روبنز),Ice Cream Shop,"حي ظهرة البديعة (شارع عائشة بنت أبي بكر), الرياض, المملكة العربية السعودية",24.5979069795427,46.6460694674262,cheap,34,41,3,9,38
Baskin-Robbins,Ice Cream Shop,المملكة العربية السعودية,24.5982141178634,46.648322815006,cheap,6,1,0,7.8,6
كتاكيت,Arepa Restaurant,المملكة العربية السعودية,24.5950355529785,46.6509742736816,cheap,0,1,0,7.5360181223257,
جاد,African Restaurant,المملكة العربية السعودية,24.5979107887681,46.6457400443164,moderate,4,6,3,7.5360181223257,
Pizza Inn (بيتزا إن),Pizza Place,"Al Badeah (Aisha Bint Abi Baker Rd.), الرياض, المملكة العربية السعودية",24.5984349694121,46.6459144242616,cheap,3,10,4,7.5360181223257,
Souhours Gathering (مائدة السحور),Food Court,المملكة العربية السعودية,24.592477,46.653677,cheap,0,0,0,7.5360181223257,
Blu Cafe,Coffee Shop,"شارع عائشة (جوار اسواق الحربي), الرياض, المملكة العربية السعودية",24.5963128308589,46.6466779328169,cheap,1,4,0,7.5360181223257,
الخليج ستور,Swiss Restaurant,"Riyadh (البديعة), الرياض, المملكة العربية السعودية",24.592512,46.653775,expensive,1,0,0,7.5360181223257,
Baindor باندور,Bakery,"Alabraj street, المملكة العربية السعودية",24.5907731551439,46.6512403754839,cheap,3,6,1,7.5360181223257,
جافا كافيه Java cafe,"Café, Coffee Shop","البديعة (طريق المدينة المنورة), الرياض, المملكة العربية السعودية",24.5969845505177,46.6582073888296,cheap,13,30,3,8.1,14
أبو جبارة,Breakfast Spot,المملكة العربية السعودية,24.5954335315263,46.6560813568037,cheap,0,0,0,7.5360181223257,
Haya Mini Market (تموينات هيا),Dessert Shop,المملكة العربية السعودية,24.5924134559585,46.6536443094882,cheap,0,1,0,7.5360181223257,
ترك فرمت عطشك,Food Truck,"الرياض 12788, المملكة العربية السعودية",24.588755,46.653544,cheap,0,0,0,7.5360181223257,
مطعم الشراع,Breakfast Spot,المملكة العربية السعودية,24.5994069069097,46.641748829063,cheap,19,5,3,7.1,27
مطعم الجزيرة اللبنانية,Middle Eastern Restaurant,"الرياض (شارع المدينة المنورة), الرياض, المملكة العربية السعودية",24.599106,46.64112,moderate,5,1,1,7.5360181223257,
بيت الكباب - فرع البديعة,Restaurant,"طريق المدينة المنورة، ظهرة البديعة, المملكة العربية السعودية",24.5995333688522,46.6416501045751,moderate,0,0,0,7.5360181223257,
مخابز و حلويات المملكة,Dessert Shop,المملكة العربية السعودية,24.598814,46.64089,cheap,1,1,0,7.5360181223257,
Sara Meat Fresh (سارة للحوم الطازجة),BBQ Joint,"البديعة (شارع المدينة المنور ، تقاطعة مع عائشة ووجهك غرب), الرياض, المملكة العربية السعودية",24.600106,46.642685,moderate,3,1,0,7.5360181223257,
Taxi (تاكسي),"Fast Food Restaurant, American Restaurant, Burger Joint","شارع المدينة المنورة, الرياض, المملكة العربية السعودية",24.5983557349732,46.6400428338524,cheap,19,22,4,6.9,25
يامال الشام Ya mal Asham,Middle Eastern Restaurant,"الرياض, المملكة العربية السعودية",24.5987985541387,46.6405015464755,moderate,7,17,6,5.2,17
وطني N love with رز ودجاج,Diner,المملكة العربية السعودية,24.599739074707,46.6422958374023,cheap,0,0,0,7.5360181223257,
tuttie cufe,Buffet,المملكة العربية السعودية,24.6000684000169,46.6428275180104,cheap,0,3,0,7.5360181223257,
Ya Mal Alsham (يا مال الشام),Middle Eastern Restaurant,المملكة العربية السعودية,24.598707,46.64061,moderate,3,0,2,5.2,9
Al-Tazaj (الطازج),"Fried Chicken Joint, Diner","الرياض, المملكة العربية السعودية",24.600060644612,46.6443131117858,cheap,68,32,8,7.6,94
Juice Art (فن العصير),Juice Bar,المملكة العربية السعودية,24.599317,46.647161,cheap,6,8,1,6.3,11
هارديز Hardees,Fast Food Restaurant,"البديعة, المملكة العربية السعودية",24.6005559110263,46.6443179327899,cheap,14,15,5,7.4,20
KFC (كنتاكي),Fried Chicken Joint,"تقاطع طريق المدينة مع طريق عائشة بنت أبي بكر, الرياض, المملكة العربية السعودية",24.6005631366939,46.6442157810746,cheap,17,17,2,6.5,28
Herfy (هرفي),Fast Food Restaurant,"شارع عائشة بنت ابي بكر, الرياض, المملكة العربية السعودية",24.5994962035481,46.6446528376565,cheap,12,17,2,7,17
Pizza Hut (بيتزاهت),Pizza Place,"شارع عائشة بنت ابي بكر, الرياض, المملكة العربية السعودية",24.5987739847725,46.6453695343273,cheap,20,17,5,6.9,30
Patisserie Jareer (حلويات جرير),"Bakery, Candy Store","البديعة (شارع عائشة بنت ابي بكر), الرياض, المملكة العربية السعودية",24.5996109831111,46.6446210321758,cheap,48,16,5,7.4,63
دار القهوة,Coffee Shop,المملكة العربية السعودية,24.5992676441493,46.6447786090721,cheap,1,0,1,7.5360181223257,
Al Mamlakah Sweets (حلويات المملكة),Dessert Shop,المملكة العربية السعودية,24.601352,46.645184,cheap,0,0,1,7.5360181223257,
Saadeddin Pastry (Saadeddin Pastry حلويات سعدالدين),Dessert Shop,"Al-Madinah Rd., الرياض, المملكة العربية السعودية",24.6003183082988,46.6429754597321,cheap,29,25,3,7,38
زهرة الرحاب للمشويات,Middle Eastern Restaurant,"شارع المدينة المنورة, الرياض, المملكة العربية السعودية",24.6002499179254,46.642775678467,moderate,2,2,1,7.5360181223257,
حلواني شيحة,Snack Place,"الحزام, المدينة المنورة, المملكة العربية السعودية",24.600688,46.643547,cheap,0,0,0,7.5360181223257,
غدير الشام,"Middle Eastern Restaurant, Afghan Restaurant",المملكة العربية السعودية,24.6004479964359,46.649279605225,moderate,5,5,2,6.8,8
FROZ (فروز),"Frozen Yogurt Shop, Ice Cream Shop","Madina Munwarah Rd, الرياض, المملكة العربية السعودية",24.6036352485183,46.6501745685134,cheap,74,71,11,9.3,123
فول ومطبق وحيد,Middle Eastern Restaurant,المملكة العربية السعودية,24.6014772198232,46.6508893096049,moderate,8,17,0,7.2,11
Hamburgini (هامبرغيني),Burger Joint,"MADINA MUNAWARAH RD (SADAQA AL-HARANI), Riyadh 12783, المملكة العربية السعودية",24.6036126692203,46.6501850831245,cheap,92,27,24,7.9,120
ليالي القهوة,Café,"طريق المدينة, الرياض, المملكة العربية السعودية",24.6013367078893,46.6513299317338,cheap,1,3,0,7.5360181223257,
Alkhafeef (عالخفيف),"Bakery, Breakfast Spot","Madinah Street, Riyadh, المملكة العربية السعودية",24.6034658797721,46.6501200346315,cheap,28,23,6,8.2,33
caffe bene,Café,"الرياض, المملكة العربية السعودية",24.6007776622953,46.6581649615848,cheap,3,3,1,7.5360181223257,
بوفية عبدالعزيز,Burger Joint,"البديعة ، شارع طنجه, الرياض, المملكة العربية السعودية",24.6020731984574,46.6573682789035,cheap,11,3,2,6.9,16
Angle Cafe 3,Café,"ظهرة البديعة, الرياض, المملكة العربية السعودية",24.6028811503647,46.6535028984015,cheap,2,5,0,7.5360181223257,
فوال ومطبق العريني,Argentinian Restaurant,المملكة العربية السعودية,24.6025994942974,46.652201935196,moderate,0,1,0,7.5360181223257,
كنافة الاسمري,Arepa Restaurant,المملكة العربية السعودية,24.6039756785547,46.6546341983087,cheap,0,3,0,7.5360181223257,
Oregano,Fast Food Restaurant,"Al Badia (Al Madinah Al Munawwarah Rd.), الرياض 11566, المملكة العربية السعودية",24.6034794324054,46.6502344608307,cheap,2,0,3,7.5360181223257,
مطعم الجزيرة اللبناني,Middle Eastern Restaurant,المملكة العربية السعودية,24.6032607810337,46.6505239312681,moderate,1,3,0,7.5360181223257,
ايهوب البديعة,Restaurant,"الرياض 12784, المملكة العربية السعودية",24.601391,46.650872,moderate,0,1,0,7.5360181223257,
فوال و مطبق - البارقي,American Restaurant,"شارع معاوية (الجيل), الرياض, المملكة العربية السعودية",24.6035924062314,46.6545729189071,moderate,0,5,0,7.5360181223257,
حلويات القصر,Dessert Shop,المملكة العربية السعودية,24.6013946533203,46.6498260498047,cheap,1,1,0,7.5360181223257,
fofa (فوفة),Cupcake Shop,"السويدي ، شارع الابراج ( عائشة بنت ابي بكر ), الرياض, المملكة العربية السعودية",24.6030232614793,46.6538517131397,moderate,3,1,1,7.5360181223257,
بيت الكيك,Dessert Shop,"حي البديعة (شارع عائشة بنت أبي بكر (الأبراج)), الرياض, المملكة العربية السعودية",24.594529,46.647863,cheap,2,1,1,7.5360181223257,
Blumora (بلومورا),Ice Cream Shop,المملكة العربية السعودية,24.5954171216927,46.6476346915067,cheap,2,11,3,7.5360181223257,
بيت الكيك Cake House,Dessert Shop,"شارع الابراج, الرياض, المملكة العربية السعودية",24.5956,46.6475,cheap,1,0,1,7.5360181223257,
Barda Kunafa (كنافة بردا),Cupcake Shop,"., المملكة العربية السعودية",24.6002406979726,46.6488636800271,moderate,55,16,8,8,64
اقدم بوفية في الجيل,Fast Food Restaurant,"الرياض 12784, المملكة العربية السعودية",24.601445,46.650995,cheap,1,4,0,7.5360181223257,
بيت الكنفاني,Bakery,"البديعة (عائشة بنت أبي بكر (الأبراج)), الرياض, المملكة العربية السعودية",24.5953343142472,46.6478326438702,cheap,9,2,0,6.5,13
Qemat Arfah (قمة عرفة),"Falafel Restaurant, Middle Eastern Restaurant","Al Madinah As Sina'iyah (Al Amir Satam Ibn Abdul Aziz St), الرياض 12784, المملكة العربية السعودية",24.6000652149575,46.6480565071106,cheap,0,1,0,7.5360181223257,
كلمات,Dessert Shop,المملكة العربية السعودية,24.6010405113342,46.662544586226,cheap,4,3,1,7.5360181223257,
Alwadi Snacks (خفايف الوادي),Food Truck,"وادي حنيفة, الرياض 12595, المملكة العربية السعودية",24.6036514604836,46.6659580368063,cheap,3,15,2,7.5360181223257,
كنتاكي شارع الابراج,Bakery,المملكة العربية السعودية,24.6002465852203,46.644203641943,cheap,5,0,1,7.5360181223257,
Koshary Albasha | كُشري الباشا,Egyptian Restaurant,المملكة العربية السعودية,24.6004705508236,46.6436663835634,cheap,1,6,1,7.5360181223257,
Pizzaratti (بيتزاراتي),"Pizza Place, Italian Restaurant","Dhahrat Al Badi'ah (Al Madinah Al Munawwarah Rd.), الرياض 12784, المملكة العربية السعودية",24.6037525657769,46.6503015160561,cheap,23,12,10,7.9,31
Oregano Pizzeria (اوريجانو بيتزاريا),Pizza Place,"Al Badia (Al Madinah Al Munawwarah Rd.), الرياض 11566, المملكة العربية السعودية",24.603935,46.65041,cheap,34,16,45,8.2,52
Oregano Pizzeria (اوريجانو بيزاريا),Pizza Place,المملكة العربية السعودية,24.6035243950151,46.6501421461157,cheap,75,40,93,8,102
B12 Cafe,Café,"الرياض 12782, المملكة العربية السعودية",24.604879,46.657587,cheap,4,1,1,7.5360181223257,
ترك فرمك عطشك,Food Truck,"السويدي (سعد بن عتيق), الرياض 12787, المملكة العربية السعودية",24.6055586646346,46.6573588507821,cheap,2,5,1,7.5360181223257,
Wingzilla,"Food Truck, Wings Joint","Hattain (Prince Saud bin Mohammed), الرياض 00966, المملكة العربية السعودية",24.682342016967,46.6697536527767,cheap,78,176,11,8.4,98
فلافل,Falafel Restaurant,المملكة العربية السعودية,24.605018,46.656465,cheap,0,0,0,7.5360181223257,
بخاري نورة,Kebab Restaurant,"الرياض 12782, المملكة العربية السعودية",24.604783,46.656033,cheap,0,1,0,7.5360181223257,
سيارة بليلة مقابل رواد التربية,Food Truck,المملكة العربية السعودية,24.6054359183248,46.6574059914065,cheap,0,0,0,7.5360181223257,
Cinnabon - Badiaah Mall,Snack Place,المملكة العربية السعودية,24.6063175532651,46.6547426158957,cheap,1,0,0,7.5360181223257,
Stick House (ستك هاوس),Ice Cream Shop,"طريق المدينة بجوار بندة, الرياض, المملكة العربية السعودية",24.6036524529403,46.6500743273938,cheap,16,24,3,6.9,21
قصة القصة,Café,المملكة العربية السعودية,24.6081437347829,46.6567413127121,cheap,0,1,0,7.5360181223257,
Cottage Coffee (كوخ القهوة),"Food Truck, Coffee Shop","Food Track, الرياض, المملكة العربية السعودية",24.6068670888034,46.6598620794894,cheap,6,12,0,7.5360181223257,
Hunger Bunny (الارنب الجائع),Burger Joint,المملكة العربية السعودية,24.6068556845587,46.6557278125833,cheap,0,3,0,7.5360181223257,
Gardens Coffee (حدائق القهوة),"Coffee Shop, Tea Room",المملكة العربية السعودية,24.6080268798063,46.6670000827507,cheap,108,228,29,7.8,147
Gardens Cafe,"Café, Coffee Shop","الرياض 12781, المملكة العربية السعودية",24.60795,46.667047,cheap,0,6,0,7.5360181223257,
Second Event Coffee (مقهى الحدث الثاني),Coffee Shop,المملكة العربية السعودية,24.6081680322305,46.6659533219347,cheap,0,4,0,7.5360181223257,
Maui Wowi (ماوي واوي),Café,المملكة العربية السعودية,24.6038797582626,46.6501468594948,cheap,5,11,0,6.2,8
بلنزي للوجبات السريعه,Breakfast Spot,"الرياض 12771, المملكة العربية السعودية",24.616398,46.69299,cheap,0,1,0,7.5360181223257,
ليالي توتي,Restaurant,"الجرداية (الجرادية), Alriyadh, المملكة العربية السعودية",24.6155910491943,46.6991767883301,moderate,1,6,0,7.5360181223257,
فن السيريه,African Restaurant,"الرياض 12747, المملكة العربية السعودية",24.619584,46.694438,moderate,0,11,1,7.5360181223257,
Maestro Pizza (مايسترو بيتزا),Pizza Place,المملكة العربية السعودية,24.6172172850602,46.6938118285729,cheap,1,0,0,7.5360181223257,
بروست الشراع,Fast Food Restaurant,المملكة العربية السعودية,24.61889,46.692646,cheap,1,0,0,7.5360181223257,
مطعم سعيد عبدالله آل محاصر البخاري,Middle Eastern Restaurant,المملكة العربية السعودية,24.6174733821068,46.6935382143734,moderate,0,1,0,7.5360181223257,
مطعم نصيل التاج,Turkish Restaurant,"Madina Road, الرياض, المملكة العربية السعودية",24.6173642533567,46.6937410661365,moderate,0,0,0,7.5360181223257,
بيت الشوايه,Arepa Restaurant,المملكة العربية السعودية,24.6186453041216,46.6964018026035,cheap,1,1,0,7.5360181223257,
Shawaya House (بيت الشواية),Restaurant,"Madina Road (Asir Street), الرياض, المملكة العربية السعودية",24.6173938658155,46.6937457836291,moderate,0,1,0,7.5360181223257,
كبدة الشيف احمد قمبو,African Restaurant,"الرياض 12771, المملكة العربية السعودية",24.617678,46.695893,moderate,0,2,0,7.5360181223257,
مطعم درة اخوان البخاري,Restaurant,المملكة العربية السعودية,24.6173617757594,46.6937080437004,moderate,0,0,0,7.5360181223257,
مطاعم نسمة الطاهي للمثلوثة و الأكلات الشعبية,Middle Eastern Restaurant,المملكة العربية السعودية,24.6174996267378,46.6938306985729,moderate,1,0,1,7.5360181223257,
Dunkin Donuts Tammimi,Donut Shop,"King Fahd Rd., الرياض, المملكة العربية السعودية",24.6181911771366,46.6950431109863,cheap,1,3,0,7.5360181223257,
مشويات الهوساوي,African Restaurant,"الرياض - شارع المدينة المنورة, الرياض 12771, المملكة العربية السعودية",24.617602,46.695041,moderate,1,5,1,7.5360181223257,
مشويات ركن الحطاب,African Restaurant,المملكة العربية السعودية,24.6175059653771,46.6935382143734,moderate,0,1,0,7.5360181223257,
فرن باكستاني و تميس,Breakfast Spot,المملكة العربية السعودية,24.6173126541003,46.6937269136612,cheap,0,0,0,7.5360181223257,
بيت الكبدة,Breakfast Spot,"مقابل الرئاسة العامة للبحوث واالعلمية والافتاء, الرياض, المملكة العربية السعودية",24.6174748893392,46.7050689214577,cheap,113,94,22,8.5,135
Burger King - Al Salam Park,Burger Joint,"Salam Park, Salam St, Salam, الرياض 12651, المملكة العربية السعودية",24.620673,46.708933,cheap,0,0,0,7.5360181223257,
Starbucks,Coffee Shop,"الرياض 12651, المملكة العربية السعودية",24.62169,46.709281,cheap,0,2,0,8.3,0
خمير,Yemeni Restaurant,"الرياض 12634, المملكة العربية السعودية",24.630528,46.714779,cheap,0,0,0,7.5360181223257,
لا احد يجي,Café,"المهدية (شارع وادي هرجاب), الرياض 13765, المملكة العربية السعودية",24.648947,46.496517,cheap,2,11,4,7.5360181223257,
مطعم الباشا,Restaurant,"الوشم, الرياض 12725, المملكة العربية السعودية",24.648819565773,46.6707211732864,moderate,7,2,1,6.4,12
Wish Rayak,Fast Food Restaurant,المملكة العربية السعودية,24.649621963501,46.6703033447266,cheap,1,0,0,7.5360181223257,
السبيعي الناصريه,Restaurant,المملكة العربية السعودية,24.65066,46.670343,moderate,1,0,0,7.5360181223257,
بوفيه كبده حاشي,Afghan Restaurant,"Alnasryah, الرياض, المملكة العربية السعودية",24.6519510106974,46.6723146038875,moderate,15,4,1,7.4,20
فلافل نايف,Falafel Restaurant,"شارع المعذر, الرياض 12733, المملكة العربية السعودية",24.653876,46.675091,cheap,1,0,0,7.5360181223257,
chicken basha,Fried Chicken Joint,المملكة العربية السعودية,24.6517306780684,46.6719085593335,cheap,2,1,0,7.5360181223257,
بوفية قسم الناصريه,Cafeteria,المملكة العربية السعودية,24.654406,46.684756,cheap,0,1,0,7.5360181223257,
القهوة العربية || Arabian Cofe,Café,"الناصرية (شارع التخصصي), الرياض, المملكة العربية السعودية",24.6552648629579,46.6870379584614,cheap,1,2,0,7.5360181223257,
detour truck | تحويلة,Food Truck,المملكة العربية السعودية,24.667555003491,46.5388563858403,cheap,0,2,0,7.5360181223257,
Starbucks,Coffee Shop,"University Medical City - King Saud University, الرياض, المملكة العربية السعودية",24.6577070286356,46.6864766552256,cheap,6,6,1,7.4,8
Helens kitchen,Bakery,"Takassusi Street (King Faisal Hospital), الرياض, المملكة العربية السعودية",24.6566855767673,46.6868351338762,cheap,0,1,0,7.5360181223257,
Tafaseel,Coffee Shop,"الرياض 13752, المملكة العربية السعودية",24.671673,46.55356,cheap,0,0,0,7.5360181223257,
عزرائيل,Food Truck,"الرياض 12564, المملكة العربية السعودية",24.6679754791819,46.5401167663148,cheap,0,2,0,7.5360181223257,
كبسة دسمان,Restaurant,"المهدية (السيل الكبير), الرياض 13752, المملكة العربية السعودية",24.672108,46.554105,moderate,1,1,0,7.5360181223257,
Karem Cafe (مقهى كريم),Café,"Prince Turki Bin Abdulaziz Al-Aawwal Rd. (Makkah Rd.), الرياض, المملكة العربية السعودية",24.6752718584646,46.6689370759666,moderate,752,643,143,8.4,974
Richony Cafè (قهوة ريتشوني),"Café, Coffee Shop","Makkah Rd (Prince Turki Al-Awwal St), الرياض 12312, المملكة العربية السعودية",24.6752967549873,46.6713988538543,cheap,1169,5726,142,9,1400
Rojina Restaurant & Cafe (روجينا كافيه),Middle Eastern Restaurant,"الرياض - المعذر الشمالي - طريق مكة المكرمة الفرعي (Makkah road), الرياض 12312, المملكة العربية السعودية",24.675439,46.673676,moderate,707,1501,144,9,885
Herfy (هرفي),Fast Food Restaurant,"Ar Riyad 12312 (Al Lazaz St), الرياض, المملكة العربية السعودية",24.6755871512475,46.6750987250658,cheap,46,48,14,6.6,74
Diwan Cafe (ديوان القهوة),Café,"Mecca Rd, الرياض, المملكة العربية السعودية",24.6751277598501,46.6715324941626,cheap,31,116,5,7.8,38
Manoosha (منؤشة),"Bakery, Pizza Place","Kurais Rd. (Al Takhassusi St.), الرياض, المملكة العربية السعودية",24.6753041462008,46.673647159363,cheap,42,26,3,7.7,52
Veloce,Food Truck,"الرياض, المملكة العربية السعودية",24.6752169821226,46.6752000401485,cheap,13,46,0,8.1,14
Diwan Cafè (كوفي الديوان),Coffee Shop,المملكة العربية السعودية,24.675076,46.670997,cheap,2,0,0,7.5360181223257,
Richony Square (مربع ريتشوني),"Outdoor Event Space, Coffee Shop","Aseela Street (Shaker Bin Sabra Street), الرياض 12312, المملكة العربية السعودية",24.676455,46.672619,cheap,1,2,0,7.5360181223257,
Diet Center (دايت سنتر),"Sandwich Place, Nutritionist","Azizia - Whites Pharmecy (Tkhasossi - Turki Alawal), الرياض, المملكة العربية السعودية",24.6753889438577,46.6736546025574,cheap,1,16,1,6.3,4
Starbucks (ستاربكس),Coffee Shop,"Takhassusi St (Takhassusi St), الرياض, المملكة العربية السعودية",24.6761803530616,46.6763985652915,expensive,3042,5324,285,9,3557
Waynes Coffee (واينز كوفي),Coffee Shop,"Hyper Panda (Khurais Rd.), الرياض, المملكة العربية السعودية",24.6755764885853,46.6759706483164,cheap,968,1660,239,8.8,1224
Dunkin Donuts (دانكن دونتس),Donut Shop,"Mecca Rd, الرياض, المملكة العربية السعودية",24.6759573683572,46.6755869903592,cheap,327,675,37,9,380
Penguins Restaurants (مطاعم البطريق),Burger Joint,"Al Madhar Ash Shamal (at Takhassusi St), الرياض 12312, المملكة العربية السعودية",24.6759167239027,46.6753882872999,cheap,164,103,59,8.2,216
Yummy Wok (يمي ووك),Noodle House,"Mecca Rd (at Takhassusi St), الرياض, المملكة العربية السعودية",24.6760175143854,46.6753408390428,cheap,1062,853,359,8.5,1397
Hamburgini (هامبرغيني),Burger Joint,"الرياض 12312, المملكة العربية السعودية",24.6761475763223,46.675789156106,cheap,30,39,2,7.1,46
Big Tummy,Coffee Shop,"Makkah Almukrmah Road, الرياض 12312, المملكة العربية السعودية",24.676153,46.675636,cheap,33,94,2,8.7,36
Shrimper,Seafood Restaurant,"Awal Plaza (Makkah Rd.), الرياض 12312, المملكة العربية السعودية",24.676374,46.675682,expensive,5,13,1,7.5360181223257,
Arepas (أريباس),"Arepa Restaurant, Middle Eastern Restaurant","Azizia Panda Takhassusi, الرياض, المملكة العربية السعودية",24.6761696533621,46.6768486529238,cheap,144,106,76,7.9,217
Baskin-Robbins,Ice Cream Shop,"الرياض, المملكة العربية السعودية",24.6762535179353,46.6760803201424,cheap,77,105,10,9,93
So Soufflé (سو سوفليه),Dessert Shop,"الرياض 12312, المملكة العربية السعودية",24.6760898867187,46.6756677243877,cheap,21,68,4,8.2,28
Farghali (فرغلي),Juice Bar,"Takhassusi St (Khurais Rd), الرياض, المملكة العربية السعودية",24.6762084467013,46.6770389462685,cheap,18,29,5,7.5,23
HOTDOG EXPRESS (هوت دوج اكسبرس),Hot Dog Joint,"Altakhassusi (Kuris), الرياض, المملكة العربية السعودية",24.6765283414699,46.6777730645764,cheap,109,97,49,8.5,148
Shawarmer (شاورمر),Shawarma Place,"Hyper Panda Plaza (Takhasusi Street), الرياض, المملكة العربية السعودية",24.6759196911779,46.6753639635343,cheap,63,43,20,6.8,94
Mozzat,"Butcher, Storage Facility, BBQ Joint","الرياض 12312, المملكة العربية السعودية",24.675768,46.675209,cheap,14,80,4,8.6,15
Dominos Pizza دومينوز بيتزا,Pizza Place,"Khurais Rd. (Takhassusi St.), الرياض, المملكة العربية السعودية",24.6759984342606,46.6753494793177,cheap,65,54,12,7.9,86
KFC,"Fast Food Restaurant, Fried Chicken Joint","Takhassussi, المملكة العربية السعودية",24.6762560340343,46.6761144427855,cheap,14,31,6,5.4,34
Dominos Pizza,Pizza Place,"Awal Plaza, 3198 Makkah Al Mukarramah Branch Rd, Al Mathar Al Shamali, الرياض 12312, المملكة العربية السعودية",24.675963,46.675197,cheap,0,2,0,7.3,0
alś (آلز),"Sandwich Place, Health Food Store","Makkah Road, الرياض, المملكة العربية السعودية",24.6759760836376,46.6753362144202,cheap,73,179,74,6.4,144
La soufflé,Café,"الرياض 12312, المملكة العربية السعودية",24.676058,46.675782,cheap,0,4,0,7.5360181223257,
Maestro Pizza,Pizza Place,"الرياض 12312, المملكة العربية السعودية",24.676163,46.676146,cheap,0,1,0,7.3,0
Doe (دو),"Sandwich Place, Salad Place","2448 Prince Sultan Bin Abdulaziz Rd, الرياض 12314, المملكة العربية السعودية",24.681362226993,46.6672445655808,cheap,150,194,40,8.3,214
Mikado House (بيت ميكادو),Turkish Restaurant,"Prince Turki St (Prince Sultan Bin Abdulaziz St.), الرياض, المملكة العربية السعودية",24.6812624654345,46.6665553398859,moderate,269,301,129,7.5,401
شونيز Shuneez,Burger Joint,المملكة العربية السعودية,24.6814066055335,46.6672705179484,cheap,22,22,7,7.2,31
Glaze Donuts,Donut Shop,"شارع الأمير سلطان بن عبدالعزيز, الرياض 12312, المملكة العربية السعودية",24.682095,46.667207,cheap,1,11,0,7.5360181223257,
أوتشو 8 Och,Food Truck,"الرياض 12321, المملكة العربية السعودية",24.6796895032841,46.6667501415498,cheap,1,1,0,7.5360181223257,
Subway (صب واي),Sandwich Place,"At National Water Company (King Fahad Road), الرياض, المملكة العربية السعودية",24.6768334564367,46.6710927960313,cheap,0,1,0,7.5360181223257,
Almajlas Coffee Shop (مقهى المجلس),Café,المملكة العربية السعودية,24.6823977680085,46.6698587189586,cheap,28,12,3,7.8,36
Sudairy’s,Café,"الرياض 12312, المملكة العربية السعودية",24.679952,46.675049,cheap,3,2,0,7.5360181223257,
Java Time (جافا تايم),Coffee Shop,"شارع التخصصي | Takassussi St (Takhassusi St.), الرياض, المملكة العربية السعودية",24.6809356483187,46.6771954406978,cheap,995,1126,162,8.9,1198
مطعم مرجان البخاري,"Indian Restaurant, Middle Eastern Restaurant","خالد بن الوليد, الرياض, المملكة العربية السعودية",24.6797442384646,46.6777503795179,moderate,39,31,13,7.5,54
Patisserie Jareer (حلويات جرير القباني),"Dessert Shop, Bakery","Takhassusi, الرياض, المملكة العربية السعودية",24.6781882962024,46.6781627421986,cheap,47,26,7,7.7,61
Als Gourmet,"Café, Sandwich Place","3198 Abu Hadriyyah, Al Mathar Ash Shamali, Riyadh 12312 6186 Abu Hadriyyah, Al Mathar Ash Shamali, Riyadh 12312 (Takhassousi St.), Riyadh 12312, المملكة العربية السعودية",24.6759388333254,46.6751173138618,cheap,2,7,2,7.5360181223257,
instagram: hilalicool,"Café, Coffee Shop","takhassusi street, الرياض, المملكة العربية السعودية",24.68112,46.677169,cheap,0,0,0,7.5360181223257,
Pizza Inn,Pizza Place,"Kurais (Takhasusi), الرياض, المملكة العربية السعودية",24.6763368102499,46.6755678695202,cheap,6,6,1,6.1,9
Just around the corner,Burger Joint,المملكة العربية السعودية,24.676103,46.676577,cheap,0,0,0,7.5360181223257,
Aculturecuisine,Food Truck,"طريق الأمير سعود بن محمد بن مقرن (طريق تركي الأول), الرياض, المملكة العربية السعودية",24.6873331012489,46.6638222455271,cheap,0,9,0,7.5360181223257,
Juice Ice Cream Food Truck,"Food Truck, Juice Bar","الرياض 12811, المملكة العربية السعودية",24.6841879492162,46.6684758417912,cheap,1,2,0,7.5360181223257,
فوال النخيل,Falafel Restaurant,"Alma'athar Alshamali, الرياض, المملكة العربية السعودية",24.6830483868835,46.6688200459631,cheap,0,2,0,7.5360181223257,
Lai Lai,Chinese Restaurant,"Panorama Mall, الرياض, المملكة العربية السعودية",24.6851635,46.6684401,cheap,0,0,0,7.5360181223257,
Chapati Chef,Café,"الرياض, المملكة العربية السعودية",24.679181,46.667029,cheap,1,0,0,7.5360181223257,
Lemont Cafe (ليمونت كافيه),Coffee Shop,"الرياض, المملكة العربية السعودية",24.681933,46.667941,cheap,0,7,0,7.5360181223257,
Herfy (هرفي),Fried Chicken Joint,"Panorama Mall, Takassussi, الرياض, المملكة العربية السعودية",24.6861186,46.6684964,cheap,1,0,1,7.5360181223257,
Sweet Station Truck,Food Truck,"الرياض 12321, المملكة العربية السعودية",24.6841879492162,46.6684758417912,cheap,3,0,0,7.5360181223257,
ساندويتش بنيني || Sandwich Panini,Sandwich Place,"شارع الأمير سلطان بن عبدالعزيز (التخصصي), المعذر الشمالي, المملكة العربية السعودية",24.682303,46.669334,cheap,8,6,2,8.2,9
Volceno,"Food Truck, Food Service","Turki Alawwal (Al Radham Street), الرياض 12321, المملكة العربية السعودية",24.6809406920276,46.6663588025177,cheap,0,1,0,7.5360181223257,
Sandwich Panini,Sandwich Place,المملكة العربية السعودية,24.6825032872743,46.6697536527767,cheap,0,2,1,7.5360181223257,
BOOZE Speciality Coffee Bar,Coffee Shop,"Prince Sultan Bin Abdulaziz St (Prince Sultan Bin Abdulaziz Street), الرياض 12312, المملكة العربية السعودية",24.6826420856402,46.6716756268917,cheap,1089,6993,228,7.6,1603
Yogi,"Sandwich Place, Salad Place","‎2849 طريق الأمير سلطان بن عبدالعزيز, الرياض 12312, المملكة العربية السعودية",24.682785,46.671838,cheap,111,114,18,9.3,129
Glaze Donuts,Donut Shop,"Prince Sultan Bin Abdulaziz St., الرياض 12312, المملكة العربية السعودية",24.6826143626054,46.6718101501465,cheap,298,1319,110,6.9,494
Lets pizza,Pizza Place,"التخصيصي تقاطع الثلاثين, الرياض 12311, المملكة العربية السعودية",24.6845203690611,46.6750800926536,cheap,81,54,25,8.5,107
فوال النخيل السوداني,Middle Eastern Restaurant,"Olaya (Prince Sultan 30), الرياض, المملكة العربية السعودية",24.6840110556978,46.6737946123195,moderate,49,20,8,6.4,81
Tazaj مطعم طازج التخصصي,Fast Food Restaurant,"takkassusi street (under body masters gym), الرياض 12314, المملكة العربية السعودية",24.68528,46.674927,cheap,0,1,1,7.5360181223257,
فوال بن كلب.,Middle Eastern Restaurant,المملكة العربية السعودية,24.6841471953917,46.6737570433666,moderate,3,2,1,7.5360181223257,
كبده بنت ٦٦ كلب .,Sandwich Place,"التخصصي (تخصصي), الرياض, المملكة العربية السعودية",24.684088,46.67374,cheap,0,1,0,7.5360181223257,
صب واي Subway,Sandwich Place,المملكة العربية السعودية,24.6876240423204,46.6710032043414,cheap,0,1,0,7.5360181223257,
cafe liwan,Café,المملكة العربية السعودية,24.675521,46.673109,cheap,1,2,1,7.5360181223257,
مخبزنا الخورافي,Bakery,المملكة العربية السعودية,24.6838161483485,46.673488254451,cheap,0,0,0,7.5360181223257,
Tamis bakery,Bakery,"Prince Sultan Bin Abdulaziz St (Al Takhasousi St), الرياض, المملكة العربية السعودية",24.684112,46.673594,cheap,1,0,0,7.5360181223257,
Subway (صب واي),"Sandwich Place, Fast Food Restaurant",المملكة العربية السعودية,24.6871420737102,46.6727809221061,cheap,1,0,0,7.7,1
Panorama Food Court,Food Court,"الرياض, المملكة العربية السعودية",24.6890723293162,46.6632093421534,cheap,3,6,0,5.3,8
coffee outdoors,Coffee Shop,"Prince Muhammad Bin Abdulaziz Road, الرياض 12314, المملكة العربية السعودية",24.688533,46.665021,cheap,0,0,0,7.5360181223257,
VERSUS Versace Caffē (فيرسوس فيرساتشي كافيه),"Café, Coffee Shop, Antique Shop","Panorama Mall. Gate 2 (شارع التحليه ،بانوراما مولPanorama mall), الرياض, المملكة العربية السعودية",24.691638901469,46.6689819389064,cheap,329,594,170,6.1,610
Nespresso,Coffee Shop,"الرياض 12332, المملكة العربية السعودية",24.691059,46.668899,cheap,7,11,0,7.5,9
Seriously,"Burger Joint, Food Truck, Hot Dog Joint","الرياض 13512, المملكة العربية السعودية",24.6914689312232,46.6683815396922,cheap,7,52,4,8,8
Kukuruza Gourmet Popcorn,Snack Place,"Panoroma Mall, المملكة العربية السعودية",24.6922125649434,46.6678723114325,cheap,2,4,0,7.5360181223257,
LOLAs Cupcakes,Coffee Shop,"Panorama mall, الرياض, المملكة العربية السعودية",24.691698,46.668872,cheap,5,3,3,5.4,13
stickhouse,"Dessert Shop, Ice Cream Shop",المملكة العربية السعودية,24.6914810435361,46.66919254356,cheap,2,6,0,7.5360181223257,
Casa Pasta,Italian Restaurant,"الرياض, المملكة العربية السعودية",24.6921545321903,46.6640815530642,moderate,3,3,1,7.5360181223257,
Galler,"Café, Dessert Shop",المملكة العربية السعودية,24.6909189460722,46.6689897913591,cheap,0,4,0,7.5360181223257,
Galler caffe,Café,المملكة العربية السعودية,24.6906936215647,46.6688153308214,cheap,0,0,0,7.5360181223257,
ريتشوني,Coffee Shop,"الرياض, المملكة العربية السعودية",24.690995,46.664463,cheap,0,1,0,7.5360181223257,
Waynes Coffee (واينز كوفي),Coffee Shop,"Panorama Mall (Takhassusi St.), الرياض, المملكة العربية السعودية",24.6918490131275,46.6687807168705,cheap,557,766,144,8.2,757
M&S Café,Café,"الرياض 12332, المملكة العربية السعودية",24.692527,46.669976,cheap,42,185,13,7.4,58
Key Café,Coffee Shop,"الرياض 12332, المملكة العربية السعودية",24.6923102879623,46.6699364345082,cheap,146,470,22,8.2,189
Piatto (بياتو),"Italian Restaurant, Pizza Place","Panorama Mall (Gate 2 Takhassusi Street, corner Tahlia Street), الرياض 12332, المملكة العربية السعودية",24.6912297736703,46.6696101927525,moderate,1000,1384,326,8.2,1419
LAROSE (لاروز),Dessert Shop,"Panorama Mall, المملكة العربية السعودية",24.6914018087853,46.6705334214282,cheap,123,96,30,8.5,155
ثوم ونص,Shawarma Place,"الرياض 12314, المملكة العربية السعودية",24.689278,46.672949,cheap,35,72,16,7.3,51
Panorama Foodcourt (ردهة مطاعم بانوراما),Food Court,"Panorama Mall | بانوراما مول (Takassussi), الرياض, المملكة العربية السعودية",24.6916411669071,46.669849835617,cheap,214,171,26,8.2,275
Caribou Coffee (كاريبو كوفي),Coffee Shop,"بانوراما مول (طريق الامير محمد بن عبدالعزيز), الرياض 12332, المملكة العربية السعودية",24.691798,46.668816,cheap,4,31,0,7.5,6
Sushi Counter (سوشي كاونتر),Sushi Restaurant,"Mall Entrance Number 4, Panorama Mall, Takhassusi Street, الرياض, المملكة العربية السعودية",24.692619185266,46.6694218180968,moderate,150,299,91,6.8,242
GODIVA (جوديڤا),"Chocolate Shop, Gift Shop, Dessert Shop","Panorama Mall, Takhassusi St, Al Mathar Ash Shamali (at Thalia St), الرياض, المملكة العربية السعودية",24.692626,46.66943,cheap,73,165,16,8.6,88
Magnolia Bakery,Bakery,"الرياض 12332, المملكة العربية السعودية",24.692344,46.669897,cheap,16,37,4,8.9,18
Tatli (تاتلي),Café,"الرياض 12332, المملكة العربية السعودية",24.6923335504685,46.6699223698865,cheap,47,207,24,5.7,92
Bread Talk (بريد توك),Bakery,"Panorama Mall (Prince Mohammed Ibn Abdulaziz), الرياض, المملكة العربية السعودية",24.6919101781495,46.668752462346,cheap,12,10,8,7.2,18
M’oishî,Ice Cream Shop,"الرياض 12332, المملكة العربية السعودية",24.692019,46.668717,cheap,7,42,4,6.4,18
FireGrill,"Mexican Restaurant, American Restaurant","الرياض 12332, المملكة العربية السعودية",24.692011,46.669938,cheap,3,27,1,7.5360181223257,
East West Restaurant at Narcissus Hotel,Buffet,المملكة العربية السعودية,24.6942517353627,46.664916061001,cheap,2,5,0,7.5360181223257,
Godiva,Dessert Shop,المملكة العربية السعودية,24.692734,46.664157,cheap,2,2,0,7.5360181223257,
Starbucks Reserve (ستاربكس ريزيرف),Coffee Shop,"Takhassusi St, الرياض 12332, المملكة العربية السعودية",24.6948395370837,46.6700886621879,cheap,1992,14930,357,9.2,2357
MONTREUX (مونترو),Dessert Shop,"الرياض 12332, المملكة العربية السعودية",24.6933444908042,46.6693962366789,cheap,254,232,26,9,260
Papparoti (باباروتي),Coffee Shop,"Panorama Mall, الرياض, المملكة العربية السعودية",24.6934208668984,46.6696543517371,cheap,239,332,75,7.8,332
Tim Hortons (تيم هورتنز),Coffee Shop,المملكة العربية السعودية,24.6934194670839,46.6697368875814,cheap,281,328,47,8.3,349
Starbucks,Coffee Shop,"الرياض 12332, المملكة العربية السعودية",24.694868,46.670011,cheap,1,1,0,8.1,1
Ladurée,"Dessert Shop, Café, Pastry Shop",المملكة العربية السعودية,24.6926001630996,46.6671744885422,cheap,1,3,2,7.7,3
Kudu - Panorama,Burger Joint,المملكة العربية السعودية,24.6924749892426,46.6700554284062,cheap,3,2,1,7.5360181223257,
Anoosh (أنوش),Dessert Shop,"الرياض 12332, المملكة العربية السعودية",24.692249,46.66985,cheap,0,2,0,7.5360181223257,
Moishi,Ice Cream Shop,"Panorama Mall, الرياض 12332, المملكة العربية السعودية",24.69221,46.668513,cheap,7,12,0,7.2,9
THE CAP SOUL,"Tea Room, Coffee Shop","الرياض 12332, المملكة العربية السعودية",24.692005,46.669709,moderate,8,30,2,8.2,10
Tatli,Café,"Panorama Mall (Takhussusi St.), الرياض 12332, المملكة العربية السعودية",24.6923159453333,46.6699031018166,cheap,8,37,6,5.4,20
الصاج الريفي,Sandwich Place,"Panorama Mall Foodcourt, المملكة العربية السعودية",24.69202,46.669902,cheap,2,4,1,7.5360181223257,
عالم الكريب,Creperie,"panorama mall (altahlia street), الرياض 12332, المملكة العربية السعودية",24.69259,46.67048,cheap,0,2,0,7.5360181223257,
Lavigne,Café,المملكة العربية السعودية,24.693731,46.669281,cheap,0,0,0,7.5360181223257,
Charleys Philly Steaks,Sandwich Place,"Panorama, المملكة العربية السعودية",24.692763,46.668796,cheap,14,24,10,6,27
Sugar Moo (شوغر مو),Dessert Shop,"Gate 4, الرياض 12332, المملكة العربية السعودية",24.693409,46.669419,cheap,3,9,4,7.5360181223257,
McDonalds ماكدونالدز,Fast Food Restaurant,"Panorama Mall Food Court (Takhassusi St.), الرياض, المملكة العربية السعودية",24.6922996579196,46.6699788462136,cheap,12,18,4,7.6,15
La Casa Pasta,Italian Restaurant,المملكة العربية السعودية,24.69127968008,46.669657362965,moderate,9,10,4,6.2,15
Bubbleology,Bubble Tea Shop,"الرياض 12332, المملكة العربية السعودية",24.69223,46.669805,cheap,6,15,6,6.5,12
Lai Lai Restaurant,Restaurant,"Panorama Mall, المملكة العربية السعودية",24.6922450849815,46.6698196660399,moderate,0,0,1,7.5360181223257,
Qies,Noodle House,"الرياض 12332, المملكة العربية السعودية",24.692698,46.669693,cheap,1,0,0,7.5360181223257,
Persian Cuisine,Restaurant,المملكة العربية السعودية,24.692539,46.667498,moderate,1,0,1,7.5360181223257,
Cinnabon (سينابون),"Dessert Shop, Bakery, Cupcake Shop","Panorama Mall, الرياض, المملكة العربية السعودية",24.692434,46.669873,cheap,3,11,2,7.5360181223257,
Popeyes Louisiana Kitchen (بوبايز),Fried Chicken Joint,"Prince mohammad ibn abdulaziz (Al takhasosi), الرياض, المملكة العربية السعودية",24.6913726535417,46.6697192710029,cheap,21,23,16,6.5,32
مقهى لامبورغيني,Café,"الرياض, المملكة العربية السعودية",24.69251,46.670856,cheap,0,0,0,7.5360181223257,
La Mode Cofé,Café,"Panorama Mall, الرياض, المملكة العربية السعودية",24.69301,46.670733,cheap,3,1,0,7.5360181223257,
Shayah (شايه),Middle Eastern Restaurant,"Panorama Mall, المملكة العربية السعودية",24.6928012283471,46.6694068908691,moderate,7,9,3,5.7,13
Canton (كانتون),Cantonese Restaurant,"Panorama Mall Food Court, المملكة العربية السعودية",24.69226,46.669907,cheap,4,6,1,7.5360181223257,
JOLT,Coffee Shop,"الرياض 12334, المملكة العربية السعودية",24.701821,46.655566,cheap,6,4,1,7.5360181223257,
Five Guys,Burger Joint,"الرياض 12334, المملكة العربية السعودية",24.701167,46.656068,cheap,1,2,0,7.1,1
الرياض,Coffee Shop,"الرياض, المملكة العربية السعودية",24.700946,46.655973,cheap,0,1,0,7.5360181223257,
الملحق,Asian Restaurant,المملكة العربية السعودية,24.7012478572928,46.6603429400467,moderate,1,3,0,7.5360181223257,
Sot Coffe&more,Coffee Shop,"الرياض 12334, المملكة العربية السعودية",24.701695,46.656187,cheap,2,5,0,7.5360181223257,
A12 cafè,Café,"الرياض 12334, المملكة العربية السعودية",24.701808,46.656923,cheap,0,2,0,7.5360181223257,
Diet Center (دايت سنتر),"Health Food Store, Salad Place","Al Takhassossi St. (0114832617), الرياض, المملكة العربية السعودية",24.7024965991474,46.6663125151249,cheap,156,60,18,7.5,216
Sushi Counter (Riyadh),"Japanese Restaurant, Sushi Restaurant","Mall Entrance Number 4, Panorama Mall, Takhassusi Street, الرياض, المملكة العربية السعودية",24.692619185266,46.6694218180968,moderate,0,0,0,7.5360181223257,
Sokarloz,Dessert Shop,"Panorama Mall, الرياض, المملكة العربية السعودية",24.6926,46.6696,cheap,0,0,0,7.5360181223257,
Dominos Pizza,Pizza Place,"Panorama Mall, Food Court, Takhassusi St, Al Mathar Ash Shamali, الرياض 12332, المملكة العربية السعودية",24.692369,46.669728,cheap,0,0,0,7.5360181223257,
Star,Coffee Shop,"الرياض 12332, المملكة العربية السعودية",24.694899,46.66982,cheap,1,0,0,7.5360181223257,
PaindOr,Cupcake Shop,"Panorama Mall, الرياض, المملكة العربية السعودية",24.6934485763836,46.6695320374593,moderate,1,2,2,7.5360181223257,
kukuruza,Dessert Shop,المملكة العربية السعودية,24.6924960718748,46.6693387142617,cheap,0,2,0,7.5360181223257,
Ward Restaurant (مطعم ورد),Lebanese Restaurant,"Al Uruba Rd. (Al Orouba Road), الرياض 12334, المملكة العربية السعودية",24.704747986753,46.6557250653022,cheap,906,2360,325,8.3,1212
Tea Lounge Almashreq,"Tea Room, Lounge",المملكة العربية السعودية,24.7043445423589,46.6553291596474,moderate,23,63,5,8,29
Maya La Chocolaterie | مايا,Café,"Al Arouba St., الرياض, المملكة العربية السعودية",24.7044728603253,46.6548391688026,moderate,671,749,217,7.8,923
Caffiene Café,"Food Truck, Café","الرياض 13326, المملكة العربية السعودية",24.7037550633809,46.6545823465025,cheap,2,1,0,7.5360181223257,
AlMashrabia Cuisine | المشربيه,Middle Eastern Restaurant,"الرياض, المملكة العربية السعودية",24.7042034039221,46.6554606548869,moderate,21,55,11,7.6,30
Al Mayass (المياس البيوت المكتبية),Middle Eastern Restaurant,المملكة العربية السعودية,24.704358208138,46.6555109733666,moderate,17,6,6,6.8,23
tea lounge,Coffee Shop,المملكة العربية السعودية,24.704278,46.655313,cheap,2,5,0,7.5360181223257,
Golden Saj (الصاج الذهبي),"Shawarma Place, Middle Eastern Restaurant","Takhassusi Street, الرياض, المملكة العربية السعودية",24.7038080579284,46.6657309595695,cheap,442,156,93,8.2,571
T.G.I. Fridays (فرايديز),American Restaurant,"Takhassusi St., الرياض, المملكة العربية السعودية",24.7049586665527,46.664525634418,moderate,940,1568,251,7.7,1401
Mango juice (مانجو جوس),"Juice Bar, Dessert Shop","يورمارشية, الرياض, المملكة العربية السعودية",24.7069104366107,46.6628454127384,cheap,710,696,151,9,822
Hardees,Burger Joint,"Takhassusi St., الرياض, المملكة العربية السعودية",24.7043105087591,46.6652906204519,cheap,137,93,21,7.4,205
KFC,"Fast Food Restaurant, Fried Chicken Joint","Takhassusi, الرياض, المملكة العربية السعودية",24.7045702263884,46.6648164490038,cheap,47,70,12,6.8,77
Krispy Kreme (كريسبي كريم),"Donut Shop, Coffee Shop","Al Takhassusi St, الرياض, المملكة العربية السعودية",24.7046807532656,46.6649343752218,cheap,129,106,15,8.5,159
بوفية مذاق الكباب اليمني,"Breakfast Spot, Middle Eastern Restaurant","الرياض 12334, المملكة العربية السعودية",24.704308,46.661284,cheap,0,2,2,7.5360181223257,
محل العصير اللذيذ,Juice Bar,"الرياض, المملكة العربية السعودية",24.704823,46.661029,cheap,4,24,2,7.5360181223257,
Jan Burger (جان برجر),Burger Joint,"Takhasusi St, الرياض, المملكة العربية السعودية",24.7043346434914,46.6654795562877,cheap,243,104,77,7.4,358
عصير عوار القلب,Juice Bar,المملكة العربية السعودية,24.7059197223343,46.6641258135618,cheap,35,41,2,8.9,37
Shawarma London (شاورما لندن),Shawarma Place,"Takhassusi St. (..), Riyadh 12334, المملكة العربية السعودية",24.7042442595198,46.6655076209073,cheap,39,42,8,6.7,58
Baskin Robbins (باسكن روبنز),Ice Cream Shop,"Euromarché, المملكة العربية السعودية",24.7056745515447,46.6642976752152,cheap,7,8,0,6.9,10
Dunkin,Donut Shop,"الرياض, المملكة العربية السعودية",24.704774,46.661969,cheap,11,5,2,7.3,14
مقهى قف (التسعينات),Café,"الرياض 12334, المملكة العربية السعودية",24.70614,46.66368,cheap,2,0,0,7.5360181223257,
Starbucks Coffee,Coffee Shop,"شارع التخصصي, الرياض 12333, المملكة العربية السعودية",24.706492,46.664066,cheap,0,0,0,7.5360181223257,
Fire Wok,Asian Restaurant,"الرياض 12334, المملكة العربية السعودية",24.704057,46.665539,moderate,8,4,5,6.8,13
Mini Chocolates (ميني شوكليت),Bakery,"umm al-hamam, الرياض, المملكة العربية السعودية",24.7060770225504,46.663248538971,cheap,1,0,0,7.5360181223257,
Burger King (برجر كينج),Fast Food Restaurant,"Takhasusi (Takhasusi st.), الرياض, المملكة العربية السعودية",24.7054100480779,46.6642870961135,cheap,28,20,5,6.7,41
Shawirma Badawyah (شاورما بدوية),Middle Eastern Restaurant,"Al Takasusi St., الرياض, المملكة العربية السعودية",24.7053264000685,46.6633131571377,moderate,20,13,6,7.4,24
Euro Bakery,Bakery,المملكة العربية السعودية,24.7063861240562,46.6631716252683,cheap,0,0,0,7.5360181223257,
عصير عوار قلب 👀,Juice Bar,المملكة العربية السعودية,24.7069351807824,46.6627615163125,cheap,37,49,4,7.4,46
Baskin Robbins| Euromarche,Ice Cream Shop,المملكة العربية السعودية,24.7056636917714,46.6642925841287,cheap,6,8,0,7.5360181223257,
Dairy Queen,Fast Food Restaurant,"الرياض 12334, المملكة العربية السعودية",24.706982,46.663006,cheap,0,2,0,7.5360181223257,
خفيف,Snack Place,"اليورومارشيه, الرياض, المملكة العربية السعودية",24.7064503578829,46.6639872592586,cheap,0,2,0,7.5360181223257,
شاورما على الصاج,Restaurant,"يورمارشيه (التخصصي), الرياض, المملكة العربية السعودية",24.705380167971,46.6633507807261,moderate,0,2,0,7.5360181223257,
Doughnuts & Coffee,Café,المملكة العربية السعودية,24.7046386172306,46.6648264803851,cheap,1,0,0,7.5360181223257,
Mini Chocolate,Dessert Shop,المملكة العربية السعودية,24.7052773716746,46.6638069279017,cheap,39,16,7,7.4,50
الشكولاته الصغيره,Café,المملكة العربية السعودية,24.705816,46.662055,cheap,2,1,0,7.5360181223257,
Cinnamon zone,Café,المملكة العربية السعودية,24.7058808803551,46.6642355918871,cheap,2,2,2,7.5360181223257,
مطاعم ومطابخ المقصورة الفضية,Middle Eastern Restaurant,"King Abdullah Road, الرياض, المملكة العربية السعودية",24.7131270393302,46.61597242606,moderate,1,3,2,7.5360181223257,
Starbucks (ستاربكس),Coffee Shop,"King Khalid Hospital, الرياض, المملكة العربية السعودية",24.7120480059965,46.6230118953732,cheap,355,623,40,9.1,409
dr.CAFE COFFEE (د. كيف كافيه),"Coffee Shop, Café, Sandwich Place","King Khaled University Hospital-KSU, الرياض, المملكة العربية السعودية",24.7131467804732,46.6213531678541,cheap,149,228,257,7.4,261
Dunkin Donuts (دانكن دونتس),Donut Shop,"الرياض, المملكة العربية السعودية",24.711603548133,46.6222081401392,cheap,47,87,5,8,59
Torta & More,Bakery,"King Khalid University Hospital (East Building), الرياض 12372, المملكة العربية السعودية",24.7131628574921,46.6224993663111,cheap,2,7,0,7.5360181223257,
Java Cafe,"Coffee Shop, Café","KKUH Plaza, الرياض 12372, المملكة العربية السعودية",24.712884,46.622517,cheap,3,9,1,6.8,3
dr.CAFE COFFEE | د. كيف,"Coffee Shop, Café, Sandwich Place","King Khalid Hospital / Girls (King Abdullah Rd.), الرياض 11566, المملكة العربية السعودية",24.712052,46.622114,cheap,7,2,0,6.8,10
java time || جافا تايم,Coffee Shop,"KKUH-King Saud University, الرياض 12372, المملكة العربية السعودية",24.710926,46.622576,cheap,1,4,0,8,1
دنكن دونتس,Donut Shop,المملكة العربية السعودية,24.711614,46.621509,cheap,1,1,0,7.5360181223257,
Torta and more (تورتا اند مور),Bakery,"KSU - College of Medicine, المملكة العربية السعودية",24.713047158713,46.6224529945755,cheap,18,16,5,6.8,24
Saadeddin Express (سعد الدين إكسبرس),Dessert Shop,"KKUH, المملكة العربية السعودية",24.7125544183097,46.6223999592989,cheap,8,15,0,6.5,12
كافتيريا كبار الاشخاص vip cafeteria at KSUMC,Cafeteria,المملكة العربية السعودية,24.7112339131774,46.6228261669021,cheap,2,4,0,7.5360181223257,
Dr.cafe Female Floor KKUH,Café,المملكة العربية السعودية,24.7114079327593,46.6211208869487,cheap,1,0,0,7.5360181223257,
دانكن,Donut Shop,"الرياض, المملكة العربية السعودية",24.7097029980221,46.6214459219977,cheap,0,3,0,7.5360181223257,
Dr.cafe,Café,"الرياض, المملكة العربية السعودية",24.7090795396864,46.624300668696,cheap,3,2,2,7.5360181223257,
KFC (كنتاكي),Fried Chicken Joint,"الرائد, المملكة العربية السعودية",24.7108483839435,46.6299648755924,cheap,26,33,3,7,39
Subway,"Sandwich Place, Fast Food Restaurant","King Khalid University Hospital (KKUH PLAZA), الرياض, المملكة العربية السعودية",24.7132420635753,46.6224995255325,cheap,21,13,2,7.2,29
My Pie (فطيرتي),Bakery,"King Abdulah Rd, الرياض, المملكة العربية السعودية",24.71149,46.630318,cheap,0,1,1,7.5360181223257,
فوال النخيل,Bakery,"الرياض, المملكة العربية السعودية",24.7108116149902,46.6277770996094,cheap,0,1,0,7.5360181223257,
فوال النخيل,African Restaurant,"الرياض, المملكة العربية السعودية",24.711576,46.629772,moderate,0,1,0,7.5360181223257,
أسرار الكنافة,Dessert Shop,"الرياض, المملكة العربية السعودية",24.7105718129092,46.6274099847457,cheap,0,2,1,7.5360181223257,
Manaeesh,Breakfast Spot,المملكة العربية السعودية,24.7121246,46.6279856,cheap,0,0,0,7.5360181223257,
Joffreys,Coffee Shop,"الرياض 12372, المملكة العربية السعودية",24.713598,46.622578,cheap,1,0,1,7.5360181223257,
فوّال الرائد,Breakfast Spot,"الرياض, المملكة العربية السعودية",24.7112824335645,46.62998709515,cheap,1,1,0,7.5360181223257,
بخاري,Middle Eastern Restaurant,"Riyadh, المملكة العربية السعودية",24.7130692627476,46.6320507640377,moderate,0,0,1,7.5360181223257,
McDonalds ماكدونالدز,Fast Food Restaurant,"Olaya Mall (Orouba Rd.), الرياض, المملكة العربية السعودية",24.7133176277913,46.6731242217976,cheap,18,57,5,6.2,33
Macdonalds.,Fast Food Restaurant,المملكة العربية السعودية,24.7132885506914,46.6732863571872,cheap,32,17,7,8.4,41
Caribou Coffee (كاريبو كوفي),Coffee Shop,"Olya St., الرياض, المملكة العربية السعودية",24.7134642348158,46.6738878230998,cheap,78,486,19,9.1,91
Tutti Caf (قهوه توتي),Coffee Shop,المملكة العربية السعودية,24.7148211354689,46.6133206816524,cheap,2,3,0,7.5360181223257,
The Pancake House,Breakfast Spot,"الرياض, المملكة العربية السعودية",24.7168236699434,46.6118135363652,cheap,1,3,6,7.5360181223257,
كافتيريا كلية التربية,Cafeteria,المملكة العربية السعودية,24.717837,46.615722,cheap,0,0,0,7.5360181223257,
Pane Piatto (باني بياتو),Bakery,"King Saud University, المملكة العربية السعودية",24.717398920794,46.6176398473821,cheap,0,0,0,7.5360181223257,
Moon Cafe,"Coffee Shop, University, Café","الرياض 12372, المملكة العربية السعودية",24.717618,46.617553,cheap,2,0,0,7.5360181223257,
Tutti Caf (قهوه توتي),Coffee Shop,المملكة العربية السعودية,24.7147441906696,46.6150256947186,cheap,0,1,1,7.5360181223257,
Dr.cafe coffee,Coffee Shop,"College of law (( KSU)), الرياض, المملكة العربية السعودية",24.7141006928145,46.6151999672964,cheap,8,7,9,7.8,10
dr.CAFE COFFEE | د. كيف,"Coffee Shop, Café, Sandwich Place","Arts College - KSU (King Abdullah Road), الرياض 11566, المملكة العربية السعودية",24.71807,46.614497,cheap,33,30,30,7.7,47
dr.CAFE COFFEE | د. كيف,"Coffee Shop, Café, Sandwich Place","Language College - KSU (King Abdullah Road), الرياض 11566, المملكة العربية السعودية",24.7188446297548,46.6143022060452,cheap,35,19,59,8.2,58
البوفية الي تاكل منها تتسمم بس لذيذه,Restaurant,"الرياض 12372, المملكة العربية السعودية",24.718393,46.616479,moderate,0,2,0,7.5360181223257,
Auntie Anne’s,"Snack Place, Bakery","الرياض 12372, المملكة العربية السعودية",24.717271,46.617839,cheap,1,5,0,7.5360181223257,
مطعم أعضاء هيئة التدريس,Middle Eastern Restaurant,المملكة العربية السعودية,24.7168636322021,46.6189651489258,moderate,0,1,0,7.5360181223257,
pane piatto King Saud University,Coffee Shop,المملكة العربية السعودية,24.71736,46.617494,cheap,0,0,0,7.5360181223257,
dr.CAFE COFFEE | د. كيف,"Coffee Shop, Café, Sandwich Place","Administration College - KSU (King Abdullah Road), الرياض 65724, المملكة العربية السعودية",24.7180049601691,46.6141861333765,cheap,10,4,8,7.2,16
جافا كافيه   Java Caffee,Coffee Shop,"الرياض 12372, المملكة العربية السعودية",24.714943,46.622444,cheap,1,3,0,7.5360181223257,
Dunkin Donuts (دانكن دونتس),Donut Shop,"KSU, الرياض, المملكة العربية السعودية",24.7158496978768,46.6207445064485,cheap,56,104,19,7.5,73
دانكن الجامعة,Café,المملكة العربية السعودية,24.7161925723624,46.6205273501544,cheap,0,5,0,7.5360181223257,
66 Cups,Coffee Shop,"الرياض 12362, المملكة العربية السعودية",24.717306,46.619437,cheap,0,0,0,7.5360181223257,
Roma Way,Pizza Place,"King Saud University, الرياض, المملكة العربية السعودية",24.717183,46.619205,cheap,0,0,0,7.5360181223257,
Diet Center (دايت سنتر),"Restaurant, Salad Place, Gourmet Shop","King Saud University (King Saud University), الرياض 12372, المملكة العربية السعودية",24.7171467516291,46.6194494951406,moderate,2,4,1,6.2,5
Students Cafeteria,Mediterranean Restaurant,"College of Medicine (King Saud University), المملكة العربية السعودية",24.7137941185767,46.6210973337666,moderate,2,6,2,7.5360181223257,
Canton,Asian Restaurant,"King Saud University, الرياض, المملكة العربية السعودية",24.71715,46.619545,moderate,2,9,0,7.5360181223257,
قهوة العمدة || alomdah coffee,Food Truck,"الرياض 12372, المملكة العربية السعودية",24.717532,46.620209,cheap,0,0,0,7.5360181223257,
Wahid Fol (واحد فول),Mediterranean Restaurant,"King Saud University.Main Campus, الرياض 12372, المملكة العربية السعودية",24.717016,46.618949,moderate,0,1,0,7.5360181223257,
The Good Cheff,Eastern European Restaurant,المملكة العربية السعودية,24.7170314788818,46.6193580627441,moderate,0,1,0,7.5360181223257,
كروسان كافيه,Café,"مكتبة الامير سلمان, المملكة العربية السعودية",24.7187153395902,46.6195569798255,cheap,3,5,1,7.5360181223257,
Takohut,Mexican Restaurant,"King Saud University, الرياض, المملكة العربية السعودية",24.7171549013636,46.6194156653342,cheap,0,2,0,7.5360181223257,
Estknan,Café,المملكة العربية السعودية,24.713798,46.621121,cheap,0,0,0,7.5360181223257,
dr.CAFE COFFEE | د. كيف,"Coffee Shop, Café, Sandwich Place","Pharmaceutical & Dental College - KSU (King Abdullah Road), الرياض 11566, المملكة العربية السعودية",24.7153222997684,46.6218588474619,cheap,34,34,42,7.4,52
Waynes coffee - dental hospital,Coffee Shop,"Dental university hospital, الرياض 12372, المملكة العربية السعودية",24.7149828057678,46.6223877668381,cheap,2,0,0,7.5360181223257,
Caribou Coffee (كاريبو كوفي),Coffee Shop,"King Saud University (Main Hall), الرياض, المملكة العربية السعودية",24.7171736603891,46.6194114724574,cheap,19,38,5,7.3,25
La Mode Coffee,Coffee Shop,"الرياض 12372, المملكة العربية السعودية",24.716026,46.623497,cheap,0,0,0,7.5360181223257,
Cariou Coffee KSU (كاريبو كافيه البهو),Coffee Shop,المملكة العربية السعودية,24.7169734231377,46.6191101074219,cheap,0,4,0,7.5360181223257,
بوفيه ابو رهف,Breakfast Spot,"الرياض 12372, المملكة العربية السعودية",24.7187681297178,46.6259071442383,cheap,7,6,1,7.5360181223257,
فوال الجامعة,Falafel Restaurant,"الرياض, المملكة العربية السعودية",24.71425,46.626476,cheap,4,3,1,7.5360181223257,
the spirit of Indian taste,Indian Restaurant,"الرياض, المملكة العربية السعودية",24.7140197753906,46.6267242431641,moderate,0,1,0,7.5360181223257,
Title Coffee,Café,"King Saud University, الرياض, المملكة العربية السعودية",24.714636,46.626387,cheap,1,3,2,7.5360181223257,
Safarat,"Community Center, Dutch Restaurant, Cafeteria","الرياض 12372, المملكة العربية السعودية",24.717988,46.63124,cheap,0,3,0,7.5360181223257,
Dr.cafe كلية اللغات والترجمة,Coffee Shop,"كلية اللغات والترجمة, الرياض, المملكة العربية السعودية",24.7183155293638,46.6353914501467,cheap,0,0,0,7.5360181223257,
Chateau Marrakech (مطعم شاتو مراكيش المغربي),Moroccan Restaurant,"Andalus Mall (Olaya St.), الرياض 12215, المملكة العربية السعودية",24.7181536723287,46.6713400287125,expensive,545,567,248,8.2,755
Pretzel Maker,Coffee Shop,"العليا مول (طريق العروبة), المملكة العربية السعودية",24.713991,46.673594,cheap,5,0,1,7.5360181223257,
Starbucks (ستاربكس),Coffee Shop,"Oruba Street (Al Olaya St), الرياض, المملكة العربية السعودية",24.7150217062257,46.6777087288361,moderate,1514,4078,235,8.3,1974
Baskin Robbins (باسكن روبنز),Ice Cream Shop,"Oruba Street, الرياض, المملكة العربية السعودية",24.7162070942046,46.6812742235439,cheap,80,37,10,8.9,91
Arawla (اراولة),Juice Bar,"Aloroba Street, الرياض, المملكة العربية السعودية",24.7149303370571,46.6783591971511,cheap,30,73,24,8.1,44
مطعم سحائب طيبة,Turkish Restaurant,"حي الورود شارع المهندس مساعد العنقري, المملكة العربية السعودية",24.718307405781,46.6809710339574,moderate,125,26,31,8.7,149
Basatin Al Rumen Restuarant,Turkish Restaurant,المملكة العربية السعودية,24.7176239062594,46.6813992060619,moderate,23,27,3,7.6,30
2R Specialty Coffee,Coffee Shop,"الرياض 12251, المملكة العربية السعودية",24.714335,46.676759,cheap,2,1,1,7.5360181223257,
Anoosh (انوش),Dessert Shop,المملكة العربية السعودية,24.7155591920551,46.6797094266649,cheap,63,25,10,8.9,75
Al-Feshawy (الفيشاوي),Middle Eastern Restaurant,"Orouba St (العروبه مع العليا), الرياض, المملكة العربية السعودية",24.713980483191,46.6759555488013,moderate,53,82,36,6.8,82
Nan Stop Falafel (فلافل نان ستوب),Falafel Restaurant,"شارع العروبه, الرياض, المملكة العربية السعودية",24.715684,46.680144,cheap,0,3,1,7.5360181223257,
Carmey,Dessert Shop,"العروبة (جنب ستاربكس), الرياض, المملكة العربية السعودية",24.7146155948887,46.6775352566409,cheap,15,10,2,6.5,24
The Real Burger,Burger Joint,"Alurobah (Sabeh), الرياض 12252, المملكة العربية السعودية",24.719115,46.687571,cheap,30,62,10,7.7,46
Dominos Pizza (دومينوز بيتزا),Pizza Place,"Al Ueouba St., الرياض, المملكة العربية السعودية",24.718427313465,46.6861267283577,cheap,67,42,10,7.9,91
مطعم كرم اليمن للمأكولات الشعبية,Breakfast Spot,المملكة العربية السعودية,24.714274,46.849394,cheap,3,1,0,7.5360181223257,
فلافل الشام,Falafel Restaurant,المملكة العربية السعودية,24.7167959536261,46.8529682123987,cheap,45,6,0,8.3,57
مطعم اضنا,Turkish Restaurant,المملكة العربية السعودية,24.7165249127474,46.8532852885476,moderate,1,1,0,7.5360181223257,
Noon,Deli / Bodega,"الرياض, المملكة العربية السعودية",24.7242824253223,46.6025408864088,cheap,6,6,7,7.1,8
Guest Coffee,Coffee Shop,"الرياض 12372, المملكة العربية السعودية",24.720028,46.618789,cheap,0,0,0,7.5360181223257,
Al Khafeef (عالخفيف),Sandwich Place,"King Saud University, الرياض, المملكة العربية السعودية",24.7206731924356,46.6193308768317,cheap,3,2,0,7.5360181223257,
SUB WAY (صب واي),Sandwich Place,المملكة العربية السعودية,24.7232093400878,46.616867362771,cheap,0,0,0,7.5360181223257,
dr. CAFE COFFEE,Coffee Shop,"2543, الرياض 12372, المملكة العربية السعودية",24.723433,46.616344,cheap,1,0,0,7.4,1
Dr.cafe | College Of Engineering,Coffee Shop,"College Of Engineering, الرياض, المملكة العربية السعودية",24.723080410209,46.6172724446714,cheap,14,6,25,7,21
AL-Nafoura (النافورة),Afghan Restaurant,"حي الضباط (طريق صلاح الدين الأيوبي (الستين)), المملكة العربية السعودية",24.7230063394569,46.6147996122828,moderate,0,0,0,7.5360181223257,
Maken,Fast Food Restaurant,المملكة العربية السعودية,24.721998,46.619019,cheap,1,7,0,7.5360181223257,
صالة طعام,Afghan Restaurant,"جامعة الملك سعود (المسعى), الرياض, المملكة العربية السعودية",24.7212460486731,46.6193779815375,moderate,1,6,0,7.5360181223257,
alkhafeef | عالخفيف | الجامعه,Bakery,المملكة العربية السعودية,24.720341,46.619283,cheap,1,0,1,7.5360181223257,
dr.CAFE COFFEE | د. كيف,"Coffee Shop, Café, Sandwich Place","Science College - KSU (King Abdullah Road), الرياض 11566, المملكة العربية السعودية",24.721485524998,46.6183258750109,cheap,18,11,15,7.1,24
Guest Coffee | KSU Science Building 5 Branch,"Coffee Shop, College Cafeteria, Café","الرياض 12372, المملكة العربية السعودية",24.720024,46.618774,cheap,0,0,0,7.5360181223257,
Kudu (كودو),Sandwich Place,"King Saud University, الرياض, المملكة العربية السعودية",24.7206603972296,46.619225442665,cheap,16,7,5,5.2,38
Student restaurant (مطعم الطلاب),"College Cafeteria, Diner","King Saud University, الرياض, المملكة العربية السعودية",24.7210479526272,46.621348044911,cheap,6,14,8,5.1,18
Starbucks - KSU,Coffee Shop,"الرياض 12372, المملكة العربية السعودية",24.7224953654894,46.6192263639628,cheap,20,57,2,5.9,33
làvenir,Coffee Shop,"الرياض 12372, المملكة العربية السعودية",24.722303,46.619356,cheap,1,0,0,7.5360181223257,
ماكن,Cafeteria,المملكة العربية السعودية,24.721988431556,46.6192696407808,cheap,0,0,0,7.5360181223257,
dr.CAFE COFFEE | د. كيف,"Coffee Shop, Café, Sandwich Place","Computer College - KSU (King Abdullah Road), الرياض 11566, المملكة العربية السعودية",24.7230080604997,46.6197535812301,cheap,30,18,20,8.5,39
KSU Restaurant Bldg #30 (مطعم الجامعة 30),Restaurant,"مطعم مبنى 30 (Building #30), الرياض, المملكة العربية السعودية",24.7209399120654,46.6212716275774,moderate,1,7,3,7.5360181223257,
Pizza Hut Delivery (PHD) بيتزا هت,Pizza Place,"King Abdullah Rd., الرياض, المملكة العربية السعودية",24.7210304712365,46.6213224098886,cheap,9,10,1,6.8,12
جوفريز,Coffee Shop,"كلية العلوم - مبنى 5 (المدخل المقابل لعمادة القبول والتسجيل), الرياض, المملكة العربية السعودية",24.7212704829981,46.619801925893,cheap,2,1,0,7.5360181223257,
D.cafe | College of since and computer,Café,المملكة العربية السعودية,24.7230026535247,46.6197877943564,cheap,0,0,1,7.5360181223257,
Starbucks,Coffee Shop,"ممر الجامعة (قبل كلية الحاسب يسار), الرياض 12372, المملكة العربية السعودية",24.722693,46.61939,cheap,0,1,0,8.3,0
مجمع المطاعم | التحضيريه,American Restaurant,المملكة العربية السعودية,24.718796,46.621799,moderate,0,0,0,7.5360181223257,
وقت الشاي كافيه,Coffee Shop,"الرياض 12372, المملكة العربية السعودية",24.723038,46.618133,cheap,1,0,0,7.5360181223257,
Quiznos Sub A&P Collage,Deli / Bodega,المملكة العربية السعودية,24.7210257353452,46.621290470188,cheap,0,0,0,7.5360181223257,
Road al riyadh,Middle Eastern Restaurant,المملكة العربية السعودية,24.7209606293706,46.6212386530259,moderate,0,2,0,7.5360181223257,
Novels Bakery,Bakery,المملكة العربية السعودية,24.723708,46.624171,cheap,2,1,0,7.5360181223257,
Novels Bakery,Bakery,المملكة العربية السعودية,24.724083,46.624477,cheap,0,0,0,7.5360181223257,
Croissant Cafe,Coffee Shop,"جامعه الملك سعود (جوار مكتبة الامير سلمان), الرياض, المملكة العربية السعودية",24.7210523719001,46.621294031013,cheap,6,12,3,6.8,9
4 U café,Café,المملكة العربية السعودية,24.7210532108715,46.6214317899949,cheap,0,1,0,7.5360181223257,
مطاعم المقصوره,"Afghan Restaurant, Middle Eastern Restaurant","King Abdullah Road, الرياض, المملكة العربية السعودية",24.7162372990236,46.6260343240304,moderate,1,1,1,7.5360181223257,
So soufflé,Café,المملكة العربية السعودية,24.722374,46.622579,cheap,3,0,0,7.5360181223257,
Forestway,"Coffee Shop, Forest","حي الرائد سكن هيئة اعضاء تدريس جامعة الملك سعود (شارع ١٢), الرياض 12372, المملكة العربية السعودية",24.721167,46.63294,cheap,7,6,2,6.6,12
Forest Way,Café,"الرياض, المملكة العربية السعودية",24.721306,46.632695,cheap,0,3,0,7.5360181223257,
سوشي,Sushi Restaurant,المملكة العربية السعودية,24.7146768951616,46.6318717208882,moderate,0,0,0,7.5360181223257,
Bunch Coffee,Coffee Shop,"King Saud University (Girls Campus , Building 6), الرياض 12371, المملكة العربية السعودية",24.723376,46.636783,cheap,6,7,6,7.7,9
Caribou Coffee (كاريبو كوفي),Coffee Shop,"KSU (College of Medicine), المملكة العربية السعودية",24.7240574058414,46.638017857008,cheap,119,102,31,7.4,163
كاريبو كافي,Café,"الرياض 12371, المملكة العربية السعودية",24.724062,46.638026,cheap,0,0,0,7.5360181223257,
جافا كافيه,Coffee Shop,"الرياض 12371, المملكة العربية السعودية",24.723437,46.637991,cheap,1,6,0,7.5360181223257,
مُستطاب,Coffee Shop,"جامعة الملك سعود-كلية الحاسب والمعلومات, الرياض 12371, المملكة العربية السعودية",24.723229,46.637177,cheap,1,7,0,7.5360181223257,
كاريبو,Coffee Shop,"الرياض 12371, المملكة العربية السعودية",24.724151,46.638075,cheap,1,0,0,7.9,1
7ala Balqees (حلا بلقيس),Dessert Shop,"King Abdullah Road, المملكة العربية السعودية",24.7204327016591,46.6377851964021,cheap,0,0,0,7.5360181223257,
Senorita Kitchen,Diner,"الرياض, المملكة العربية السعودية",24.723424,46.638031,cheap,2,2,1,7.5360181223257,
Gelateemo KSU,Ice Cream Shop,المملكة العربية السعودية,24.7234375005896,46.6373658112984,cheap,1,1,0,7.5360181223257,
Coffee Day يوم القهوة,Coffee Shop,"King Saud University CCIS, الرياض, المملكة العربية السعودية",24.7234088315385,46.636739732687,cheap,7,6,0,6.3,11
مُستطاب Mustatab,"Café, Coffee Shop","الرياض 12371, المملكة العربية السعودية",24.723598,46.637337,cheap,3,16,2,7.5360181223257,
